id,name,name_norm,label,match_source,district,address,typecode,type,tag,lng,lat
B0J2ZZH5EC,大凤鲜鸡煲(五羊新城旗舰店),大凤鲜鸡煲,other_chicken,招牌,越秀区,寺右一马路6号6201-2,050100,餐饮服务;中餐厅;中餐厅,"双人餐,鸡肉",113.302346,23.119775
B0K2F7NL0B,DD米醋鸡煲食坊,DD米醋鸡煲食坊,other_chicken,招牌,越秀区,寺右一马路8号8201,050102,餐饮服务;中餐厅;四川菜(川菜),,113.302398,23.120415
B0L65RDCPW,虎头炸·潮汕南乳炸鸡(五羊新城店),虎头炸·潮汕南乳炸鸡,modern,招牌,越秀区,寺右一马路10号10106铺,050300,餐饮服务;快餐厅;快餐厅,炸鸡,113.302429,23.121262
B0J0MGRXZS,番佬掂·劲脆烧肉(五羊邨店),番佬掂·劲脆烧肉,non_chicken,,越秀区,明月二路(国富图文旁)(五羊邨地铁站F口步行460米),050000,餐饮服务;餐饮相关场所;餐饮相关,"套餐饭,烧鹅",113.307202,23.118642
B0J2LC0KD4,窑鸡王(珠江新城店),窑鸡王,traditional,招牌,越秀区,猎德街道花城大道20号广州远洋大厦地下1层B103铺,050000,餐饮服务;餐饮相关场所;餐饮相关,"盐焗三宝,盐焗鸡爪,盐焗鸡心,卤香藕片,卤香三结义,招牌窑鸡（整只）,招牌窑鸡,腊味饭,卤香鸭肠,卤香鹌鹑蛋,卤香鸭脖,双人餐",113.307836,23.118753
B0K105N057,粤味烧·劲脆烧肉(烧腊·快餐·五羊邨店),粤味烧·劲脆烧肉,traditional,推荐菜,越秀区,寺右南二街三巷2号101(五羊邨地铁站A口步行370米),050000,餐饮服务;餐饮相关场所;餐饮相关,"劲脆烧肉,豉油鸡,叉烧饭",113.306295,23.120731
B0KR4DHD23,湛江隔水蒸鸡(下渡大街店),湛江隔水蒸鸡,traditional,招牌,海珠区,下渡大街70号之二,050100,餐饮服务;中餐厅;中餐厅,,113.299762,23.104899
B0H10DUSIC,一号清远鸡·猪肚鸡·椰子鸡(五羊店),一号清远鸡·猪肚鸡·椰子鸡,traditional,招牌,越秀区,寺右新马路南二街六巷11号首层112铺,050300,餐饮服务;快餐厅;快餐厅,"猪肚鸡,椰子鸡",113.307536,23.119841
B0M65DI2MD,老柳州脆皮手撕鸡,老柳州脆皮手撕鸡,traditional,招牌,越秀区,东湖社区寺右南一街六巷3号东湖社区文体广场,050100,餐饮服务;中餐厅;中餐厅,,113.306118,23.119105
B0FFGCSF3G,渔意楼 清遠雞沙田乳鸽店,渔意楼清遠雞沙田乳鸽店,traditional,推荐菜,越秀区,寺右新马路170号首层(五羊邨地铁站A口步行60米),050100,餐饮服务;中餐厅;中餐厅,"鸡肉,蛋挞,白切鸡,下午茶,乳鸽,大排档",113.308189,23.12169
B0FFLKM8ZS,映日农场无花果鸡,映日农场无花果鸡,other_chicken,招牌,海珠区,滨江东路586号珠光高派华庭一楼,050100,餐饮服务;中餐厅;中餐厅,"单人餐,鸡肉,双人餐",113.299229,23.104792
B0KUG5UGSK,濠然粤菜馆·湛江鸡(五羊天街店),濠然粤菜馆·湛江鸡,traditional,招牌,越秀区,寺右新马路162号之五,050103,餐饮服务;中餐厅;广东菜(粤菜),"湛江鸡,白切鸡,走地鸡,捞粉,鹅肉,招牌白切湛江扇鸡,白切鸡",113.306874,23.122194
B0I1H7T2FD,以鸡为煮(广州塔店),以鸡为煮,traditional,招牌,海珠区,金菊路63-101铺(经典居对面),050100,餐饮服务;中餐厅;中餐厅,"啫啫鸡煲,牛杂煲,白切猪杂,蒜蓉炒时蔬,原盅炖汤,沙姜捞猪肚",113.308966,23.103731
B00141OFSI,红满堂鸡煲(中大店),红满堂鸡煲,other_chicken,招牌,海珠区,中山大学广州南校区黄铭衍堂南门东180米,050100,餐饮服务;中餐厅;中餐厅,双人餐,113.296416,23.104642
B0H2H1ITRI,湛江白切鸡(上渡路店),湛江白切鸡,traditional,招牌,海珠区,金豪嘉苑金骏街20号自编8-10商铺,050103,餐饮服务;中餐厅;广东菜(粤菜),,113.302423,23.103664
B0IGC7HUR2,清心鸡·蛋挞皇(五羊店),清心鸡·蛋挞皇,other_chicken,招牌,越秀区,寺右新马路170号1层61B号铺,050800,餐饮服务;糕饼店;糕饼店,"下午茶,蛋挞",113.30821,23.121328
B0LG1Z4ITF,紫燕百味鸡(广州越秀寺右市场店),紫燕百味鸡,modern,招牌,越秀区,寺右二马路37号首层115铺第B-6号铺,050000,餐饮服务;餐饮相关场所;餐饮相关,素菜,113.304611,23.121845
B0MGY55XHU,龙门胡须鸡,龙门胡须鸡,traditional,招牌,海珠区,金菊路38号世纪云顶负一层,050100,餐饮服务;中餐厅;中餐厅,,113.309301,23.103202
B0LGO55BV1,好运来蒜香炸鸡,好运来蒜香炸鸡,modern,招牌,海珠区,下渡西街93号,050000,餐饮服务;餐饮相关场所;餐饮相关,蒜香炸鸡,113.298569,23.104226
B0J0M51IHP,华辉拉肠(大江直街店),华辉拉肠,non_chicken,,海珠区,大江直街10-1号,050000,餐饮服务;餐饮相关场所;餐饮相关,单人餐,113.307182,23.10304
B0KD3SMCH0,番佬掂·劲脆烧肉(鹭江金豪商场店),番佬掂·劲脆烧肉,non_chicken,,海珠区,金豪商场西门旁,050100,餐饮服务;中餐厅;中餐厅,"套餐饭,烧鹅",113.302183,23.103664
B0KKF9QU9E,广州大排档(珠江新城店),广州大排档,traditional,推荐菜,天河区,珠江新城华就路6号保利·108公馆,050100,餐饮服务;中餐厅;中餐厅,"三丝炒面,招牌干炒牛河,一网打尽,脆皮石歧乳鸽,一虾三食,招牌十味手撕鸡,椒丝腐乳炒生菜,濑尿虾,甜美活虾粥,生蚝,大排档,招牌自制叉烧",113.31216,23.118445
B0K22LDUB0,逸百·全鸡汉堡(小北门店),逸百·全鸡汉堡,other_chicken,招牌,海珠区,下渡西街11巷69号102,050300,餐饮服务;快餐厅;快餐厅,,113.298255,23.104524
B0L6UAH06P,炭火烧鸡,炭火烧鸡,other_chicken,招牌,天河区,远洋明珠大厦东门旁(五羊邨地铁站B口步行440米),050100,餐饮服务;中餐厅;中餐厅,,113.311344,23.121338
B0H0VGY0LN,麦当劳(二沙岛晴波路分店),麦当劳,other_chicken,推荐菜,越秀区,二沙岛晴波路43号首层005号、负一层005号铺,050300,餐饮服务;快餐厅;快餐厅,"板烧美味三件套,大脆鸡扒麦满分组合,人气美味尽享套餐,麦辣美味三件套,原味板烧鸡腿麦满分组合,麦当劳超值嗨餐,（2-3人餐）,双人餐,汉堡,薯条",113.304118,23.110385
B0014246J1,汉堡王(建滔大厦店),汉堡王,non_chicken,,天河区,珠江新城花城大道18号建滔广场第1层第03号单元,050300,餐饮服务;快餐厅;快餐厅,"单人餐,汉堡,牛肉,薯条",113.311993,23.121598
B0FFG9UNXA,赛百味(柏丽广场店),赛百味,modern,推荐菜,海珠区,滨江东路912-974号102b铺,050300,餐饮服务;快餐厅;快餐厅,"鲍鱼大虾,黑胡椒厚切牛排三明治,香溢金枪鱼双拼三明治三件套,黑胡椒厚切牛排三明治三件套,金枪鱼三明治,照烧鸡蛋料双拼三明治三件套,日式照烧鸡三明治,西式火腿三明治,火鸡胸百味卷,双人餐,三明治",113.307787,23.106158
B00140U1UU,麦当劳(五羊新城餐厅),麦当劳,other_chicken,推荐菜,越秀区,五羊新城B4号(五羊邨地铁站F口步行70米),050302,餐饮服务;快餐厅;麦当劳,"麦当劳超值嗨餐,（2-3人餐）,原味板烧鸡腿麦满分组合,板烧美味三件套,麦辣美味三件套,大脆鸡扒麦满分组合,人气美味尽享套餐,麦辣鸡腿堡,安格斯系列,巨无霸汉堡,可乐鸡翅,家有金桶（汉堡版）,家有金桶（脆鸡版）,下午茶,双人餐,薯条,汉堡",113.306055,23.121375
B00140SXV2,麦当劳(下渡路分店餐厅),麦当劳,other_chicken,推荐菜,海珠区,上渡路123号首层,050302,餐饮服务;快餐厅;麦当劳,"辣味板烧鸡腿汉堡,麦乐鸡块餐,经典麦辣鸡腿汉堡,麻麻黑甜筒,新地雪糕,烤芝士酱薯条,麦辣鸡翅块,原味麦旋风,菠萝派,双层板烧鸡腿堡,超值午餐,麦香鱼餐,中摩卡,美式经典咖啡,双层麦香鸡,鸡翅,双人餐,汉堡,薯条",113.302975,23.10297
B0G0JOJBKO,麦当劳(金菊路分店),麦当劳,other_chicken,推荐菜,海珠区,金菊路22号101房,050300,餐饮服务;快餐厅;快餐厅,"巨无霸汉堡,安格斯系列,麦辣鸡腿堡,板烧美味三件套,大脆鸡扒麦满分组合,人气美味尽享套餐,麦辣美味三件套,家有金桶（脆鸡版）,原味板烧鸡腿麦满分组合,麦当劳超值嗨餐,（2-3人餐）,可乐鸡翅,家有金桶（汉堡版）,汉堡,双人餐",113.308288,23.103359
B0KRL1AIL0,麦当劳(广州远洋大厦分店),麦当劳,other_chicken,推荐菜,天河区,珠江新城花城大道20号负一层104商铺,050302,餐饮服务;快餐厅;麦当劳,"人气美味尽享套餐,原味板烧鸡腿麦满分组合,板烧美味三件套,麦辣鸡腿堡,安格斯系列,巨无霸汉堡,大脆鸡扒麦满分组合,麦辣美味三件套,麦当劳超值嗨餐,（2-3人餐）,可乐鸡翅,家有金桶（脆鸡版）,家有金桶（汉堡版）,汉堡,双人餐",113.312806,23.121739
B0J05SWAOM,煲仔正·老广州煲仔饭(五羊新城店),煲仔正·老广州煲仔饭,other_chicken,推荐菜,越秀区,寺右新马路南一街七巷31号101,050000,餐饮服务;餐饮相关场所;餐饮相关,"排骨,鸡肉,煲仔饭,炖汤",113.306439,23.118405
B00140W720,半岛御珍轩酒家,半岛御珍轩酒家,other_chicken,推荐菜,越秀区,渔唱街1号贰楼201房自编,050101,餐饮服务;中餐厅;综合酒楼,"红米肠,绿茶芒果薄撑,红烧桂花乳鸽,虾饺,桶仔蛋挞,避风塘太子鸽,脆皮牛坑腩,好味酱蒸凤爪,红酒汁牛肋骨,清蒸开刀龙趸,炸春卷,XO炒萝卜糕,乡村面疙瘩,金针菇三丝春卷,五谷杂粮煎糕,芝士,鸡肉,双人餐,蛋挞,点心,红烧肉,鲍鱼,龙虾",113.302922,23.110377
B0KDB7P68B,粤兴起.超级海鲜大排档(二沙岛),粤兴起.超级海鲜大排档,traditional,推荐菜,越秀区,晴波路43号首层,050119,餐饮服务;中餐厅;海鲜酒楼,"一条龙,大排档,柠檬茶,啫啫煲,啫啫走地鸡,宵夜,现捞,海鲜大排档,牛肉,米粉,鸡肉",113.303859,23.110411
B001402635,陶苑酒家,陶苑酒家,other_chicken,推荐菜,越秀区,晴波路43号,050103,餐饮服务;中餐厅;广东菜(粤菜),"当归凤爪,点心,水晶鸡,中华招牌虾饺皇,红烧乳鸽,XO酱萝卜糕,玉米汁淮山百合煲,榴莲酥,竹筒紫姜鸭,南瓜蒜香蒸排骨,磨豉酱蒸排骨,清蒸多宝鱼,虾肠,鲜笋虾饺皇,牛腩猪肠粉,鸡肉,牛腩啫猪肠粉,港式菠萝油,啫啫煲,香浓酱皇蒸凤爪,中华招牌虾饺皇,避风塘萝卜糕,荔湾艇仔粥,红烧乳鸽,啫啫牛仔骨",113.304362,23.110382
B0JRK501XU,衡地道-三菜一汤(五羊新城店),衡地道-三菜一汤,traditional,推荐菜,越秀区,寺右一马路6号201铺(珠江宾馆北门斜对面),050100,餐饮服务;中餐厅;中餐厅,"猪肉,芹菜,土鸡,小炒黄牛肉,土猪肉,小炒秦川牛肉,小炒黄牛肉",113.302416,23.119522
B0L17D8MCL,马记又一家东北锦州烧烤(滨江路店),马记又一家东北锦州烧烤,non_chicken,,海珠区,赤岗街道滨江东路795号101房,050118,餐饮服务;中餐厅;特色/地方风味餐厅,单人餐,113.303008,23.105693
B0FFG8X8R8,丘大6仔记(滨江东路店),丘大6仔记,other_chicken,推荐菜,海珠区,滨江东路525号海琴湾商铺2层(宜利苑旁),050103,餐饮服务;中餐厅;广东菜(粤菜),"瑶柱萝卜糕,蒜香蒸排骨,虾饺,梳芙厘,丹麦叉烧餐包,6仔记虾饺,蜜汁蒸凤爪,鲍汁腐皮卷,红糖马拉糕,鲍汁叉烧酥,海鲜荷叶饭,手打羊肉烧麦,蜂巢荔甫芋角,陈皮牛肉烧卖,西柠软鸭饼,竹筒黄鳝饭,黑椒牛仔骨,墨鱼汁叉烧肠粉,排骨,大虾干蒸烧卖,羊肉,墨鱼粉果,手打羊肉烧卖,西关艇仔粥,蒜香蒸排骨,小虾西关濑粉,咸水角,干炒牛河,瑶柱萝卜糕,海鲜荷叶蒸饭,丹麦菠萝油,双皮奶,虾仁蟹柳春卷,红糖马拉糕,丹麦叉烧包,鹏举咸煎饼,古法糯米鸡,蜜汁蒸凤爪,干蒸烧麦,荷叶饭,羊城鲜虾饺,菠萝包,墨鱼汁叉烧肠粉,麦苗马蹄糕,点心,鸡肉",113.30147,23.105398
B0LRBRNJ1P,東山壹号海鲜酒楼,東山壹号海鲜酒楼,other_chicken,推荐菜,越秀区,寺右新马路2号之18主楼第1层,050119,餐饮服务;中餐厅;海鲜酒楼,"金石斛青榄炖海螺,东山一号佛跳墙,头水紫菜冲浪鲜鲍鱼片,香煎葱油饼,五指毛桃焗阳山扇鸡,皇帝蟹三部曲,海鲜姿造,鲍汁扣关东50头辽参,伊比利亚黑毛土猪叉烧,招牌仙鹤神针,广西自制黄皮酱焗多宝鱼,土茯苓麦冬炖蝎子,鲜人参炖老鸡,辣卤清香鹅掌翼,鸿运锦绣烧味拼盘,金不换百合焗雪花牛肉粒,九层塔三葱汁炒波士顿龙虾,祛湿黑蒜炖花胶,烧鹅,九江双蒸白贝焗波士顿龙虾,玻璃红烧乳鸽,养生果雪梨炖猪展,龙虾刺身,太湖仙境功夫汤,黄焖天然甲鱼,波士顿龙虾,佛跳墙,甲鱼",113.299306,23.122332
B0KRNHIW9Y,娱悦公馆(珠江新城店),娱悦公馆,traditional,推荐菜,天河区,临江大道5号保利中心北1门四楼,050103,餐饮服务;中餐厅;广东菜(粤菜),"生拆蟹肉贡菜饺,过桥东星斑,白切走地鸡,榴莲天鹅酥,玻璃乳鸽,酱汁蒸凤爪,紫苏豉汁蒸白鳝,脆皮烧鹅,螺片捞起手撕鸡,西洋菜炖鲍鱼汤,顺德拆鱼羹,清蒸无骨鲫鱼,云吞,棉花空心煎堆仔,榄油松露蒸排骨,早茶,蟹肉,手撕鸡,松软剥皮叉烧包",113.312436,23.117346
B0KAP6KKVN,霸碗盖码饭(广州天河远洋店),霸碗盖码饭,non_chicken,,天河区,华就路21号,050100,餐饮服务;中餐厅;中餐厅,"单人餐,盖码饭",113.311259,23.119146
B0K1H9QFN1,牛约堡-牛肉汉堡(广州五羊店),牛约堡-牛肉汉堡,modern,推荐菜,越秀区,寺右新马路南一街七巷23号之2商铺北,050300,餐饮服务;快餐厅;快餐厅,"炸鸡,牛肉汉堡",113.306189,23.118755
B0JK4RTM0K,汝港海鲜码头,汝港海鲜码头,traditional,推荐菜,海珠区,滨江东路574号之二2楼,050100,餐饮服务;中餐厅;中餐厅,"点心,白切鸡,茄子,三文鱼,早茶,烧鹅,鱼鲜,砂锅啫河源走地鸡,萝卜糕,小榄粉果仔,百合酱蒸凤爪,凤凰流沙包,啫啫煲,老娘黑叉烧",113.298918,23.105126
B0J0GG9X3R,表叔茶餐厅(富力国际公寓店),表叔茶餐厅,non_chicken,,天河区,华讯街与华居街交叉口北60米,050100,餐饮服务;中餐厅;中餐厅,"黄油,牛杂,菠萝包",113.311006,23.119856
B0HUDUK322,客语-客家菜(五羊新地店),客语-客家菜,other_chicken,推荐菜,越秀区,寺右新马路168号二楼客语客家菜(五羊邨地铁站A口旁),050100,餐饮服务;中餐厅;中餐厅,"豆腐,客家菜,猪肉,炒饭,鸡肉",113.308138,23.121859
B0FFLJBZ8A,雄爷煲仔饭研究专家,雄爷煲仔饭研究专家,other_chicken,推荐菜,海珠区,下渡路146号之二,050100,餐饮服务;中餐厅;中餐厅,"煲仔饭,鸡肉,滑鸡煲仔饭",113.302641,23.102767
B0FFLID41G,凤厨顺德荟馆(上渡路店),凤厨顺德荟馆,traditional,推荐菜,海珠区,上渡路123号C202房之一203房,050103,餐饮服务;中餐厅;广东菜(粤菜),"招牌凤厨鸡,大良炸牛奶8件,均安煎鱼饼8件,凤城鱼肚羹,鱼腐竹笙浸胜瓜,菊花鱼,顺德双皮奶,咸鸡,湿炒三丝面,铁板茶树菇爆牛柳,烧汁烧排骨,绿茶红豆薄餐,古法蒸鲩鱼,捞起鱼皮猪肚海蜇,檀香一品骨,私房菜,豆腐,顺德双皮奶,凉拌鱼皮,菊花松子鱼,马拉糕,白切鸡",113.303037,23.102843
B0FFLHNJTV,天成川小馆(珠江新城店),天成川小馆,modern,推荐菜,天河区,花城大道16号铂林国际公寓首层108铺,050102,餐饮服务;中餐厅;四川菜(川菜),"刘师傅秘制海鲜毛血旺,姜汁腊肉芥兰苗,天成香辣美蛙,香辣鲜蛙拼麻虾,蒜泥白肉,无骨辣子鸡,三分钟红糖流心糍粑,熟油辣子香辣酱,水煮安格斯牛肉,生爆盐煎肉,招牌天成酸菜鱼,18秒雪花牛肉,牛肉,酸菜鱼,水煮牛肉,天成夫妻肺片,水煮安格斯牛肉",113.311345,23.121985
B0FFJH7FLL,THAI ALLEY泰爱里(二沙岛店),THAIALLEY泰爱里,other_chicken,推荐菜,越秀区,晴波路9号文立方广场F2层,050000,餐饮服务;餐饮相关场所;餐饮相关,"金不换肉碎生菜包,鲜木瓜沙律,菠萝炒饭,泰式咖喱炸鱼,泰入味满汁烧排骨,泰国金边粉,酸辣无骨凤爪,青咖喱安格斯牛肉,皇牌咖喱蟹,皇牌咖喱虾,鲜爽捞汁海鲜小满贯,红咖喱羊排,泰式香草酸辣汤浸桂花鱼,辣椒膏炒花甲,冬阴功海鲜汤粉,榴莲宝宝,榴莲泰式虾天妇罗,阿克苏红苹果脆糖,泰汁猪颈肉,低温牛肉沙拉,香兰叶包鸡,黄咖喱牛腩,泰式虾饼,柠檬,鱿鱼,牛肉",113.297112,23.110192
B0FFJ04EWK,及第粉(华利店),及第粉,non_chicken,,天河区,珠江新城华利路27号首层112铺,050100,餐饮服务;中餐厅;中餐厅,"及第/瘦肉汤,及第/瘦肉汤粉,招牌捞手工沙河粉,单人餐",113.312742,23.120814
B0FFIAULVI,潮双喜(富力爱丁堡国际公寓店),潮双喜,traditional,推荐菜,天河区,珠江新城华利路2号爱丁堡首层111,050123,餐饮服务;中餐厅;潮州菜,"白斩鸡,鹅肉,烧鸭",113.310943,23.119964
B0FFFDBN1Q,粤味珠江茗点(鹭江店),粤味珠江茗点,non_chicken,,海珠区,滨江东路795号珠江广场北门(宜尚酒店对面)亚朵酒店附近,050600,餐饮服务;茶艺馆;茶艺馆,双人餐,113.303529,23.105242
B00141V5I5,利口福(五羊明月店),利口福,other_chicken,推荐菜,越秀区,明月二路6号、12号明月农贸市场自编1号铺,050800,餐饮服务;糕饼店;糕饼店,"麻辣牛展,香酥琵琶鸭,香芒鹅肝卷,韭黄榨菜肉丝肠,锅贴饺子,话梅芸豆,蛋黄寿桃包,蒜蓉沙窝鱼头,葱花好味酱香芋,葱油卷,葱汁爽口珍菌焖海参,荷香瑶柱糯米鸡,荞菜炒烧肉,鲜百合炒木耳,鲍汁酿鸭掌,点心",113.305499,23.118445
B00141RGWP,金和楼,金和楼,traditional,推荐菜,越秀区,广兴华花园内寺右南二街一巷37-40号,050103,餐饮服务;中餐厅;广东菜(粤菜),"红烧乳鸽,咸猪手,香卤鹅三宝,牛柳炒茶树菇,碳烧猪颈肉,椒盐虾,老火靚湯,金和白切文昌鸡,水晶粉丝煲,葱油鸡,虾饺皇,捞鸡,台山生蚝煲猪脚,野生五叶神炖龙骨汤,猪肚煲鸡,宵夜,牛腩,香煎葱油饼,红烧乳鸽,咸煎饼,生蚝,大排档",113.308112,23.120463
B00141KZJS,御口福金殿(珠江新城店),御口福金殿,other_chicken,推荐菜,天河区,花城大道20号4楼,050103,餐饮服务;中餐厅;广东菜(粤菜),"一口菠萝包,干炒牛河,红烧脆皮乳鸭,桂花糕,拿破仑,怪味金钱肚,招牌水晶鸡,飘香榴莲酥,意大利黑醋酥肉,蒸萝卜糕,黑猪肉叉烧,三文鱼螺刺身,鹅肝,流沙包,红烧乳鸽,排骨,点心,珍珠咸水角,金奖咕噜肉,蒸萝卜糕",113.312829,23.12158
B0LUD9CWL0,穗烨居肠粉(新鸿花园店),穗烨居肠粉,non_chicken,,海珠区,江丽路101号-127号首层,050100,餐饮服务;中餐厅;中餐厅,单人餐,113.313191,23.107163
B0IG9ZBLCT,遇见小面(寺右新马路店),遇见小面,modern,推荐菜,越秀区,寺右新马路首层(五羊邨地铁A出口步行490米),050100,餐饮服务;中餐厅;中餐厅,"阳光番茄牛肉面,脆皮半只鸡麻辣小面,内蒙古羔羊羊肉串(3串),酥脆鸡排(1块),川味酸菜牛肉面,酸菜卤肉饭,葱酥骨汤抄手,白玉厚椰乳,秘制脆皮半只鸡,销魂擂椒卤肉面,酸菜卤肉面,老麻抄手,爆浆豆腐串(2串),琥珀冰粉,酥掉渣芝麻烧饼(1个),金碗酸辣粉,脆皮半只鸡阳光番茄汤面,小酥肉,重庆小面,酸辣粉,鸡肉",113.303489,23.122198
B0GK27IZQE,达美乐比萨(金菊路店),达美乐比萨,other_chicken,推荐菜,海珠区,赤岗街金菊路22号101房自编B,050300,餐饮服务;快餐厅;快餐厅,"香甜双虾菠萝比萨,英式惠灵顿菲力牛排比萨,可可熔岩芝士流心卷边,金尊猫山王榴莲多多比萨,照烧风味牛肉土豆比萨,意大利雪球芝士多肉多芝比萨,新加坡砂煲风味腊肠鸡肉比萨,呼伦贝尔羔羊排,经典意式肉酱比萨,金枪鱼海鲜荟萃比萨,黑松露风味菌菇鸡肉比萨,苏丹王榴莲多多给荔比萨,嫩滋肋眼牛排,芝士焗烤嫩汁三文鱼,马德里风情牛腩大虾比萨,托斯卡纳风情芝浓三文鱼比萨,冬日暖饮,火山饼底,经典大阪烧风味海陆比萨,西西里风情尊牛多多笋鲜比萨,可可火山饼底,苏丹王榴莲红毛丹比萨,美式豪情牛肉培根菠萝比萨,双人餐",113.308314,23.103275
B0FFGZCWRC,肯德基(上渡路店),肯德基,modern,推荐菜,海珠区,上渡路金骏街16号金豪嘉苑首层,050301,餐饮服务;快餐厅;肯德基,"香辣鸡翅,海苔岩烧大鸡腿饭,黄金鸡块,蔬菜沙拉,KFC芋缘花淇淋,葡式蛋挞,芋缘花淇淋,KFC香辣（劲脆）鸡腿堡,吮指原味鸡,肯大大鸡排,醇香土豆泥,薯条,红豆派,可乐,KFC老北京鸡肉卷,小食拼盘,鸡米花,玉米沙拉,伴柠伴桔鲜果茶,现磨咖啡,新奥尔良烤鸡腿堡",113.302547,23.103657
B0FFGAN82A,肯德基(华穗路店),肯德基,modern,推荐菜,天河区,双城国际写字楼1层(珠江新城地铁站A2口步行240米),050301,餐饮服务;快餐厅;肯德基,"KFC老北京鸡肉卷,小食拼盘,KFC芋缘花淇淋,葡式蛋挞,芋缘花淇淋,KFC香辣（劲脆）鸡腿堡,吮指原味鸡,可乐,肯大大鸡排,伴柠伴桔鲜果茶,现磨咖啡,新奥尔良烤鸡腿堡,海苔岩烧大鸡腿饭,黄金鸡块,蔬菜沙拉,醇香土豆泥,薯条,红豆派,玉米沙拉,鸡米花,香辣鸡翅",113.312543,23.121941
B0FFFW10CW,翅客(中大北门店),翅客,modern,推荐菜,海珠区,下渡西约一巷4号101,050100,餐饮服务;中餐厅;中餐厅,"烤油边,烤奶香牛油粒,烤带子,烤鸡翅,川香鸡中翅,烤五花趾,蛋炒米粉,鸡翅,宵夜,玉米,羊肉,茄子",113.299641,23.103917
B0FFFOVL0J,尊宝比萨(中大北门店),尊宝比萨,modern,推荐菜,海珠区,滨江东路556号(蓝色康园首层),050200,餐饮服务;外国餐厅;外国餐厅,"经典苏丹王榴莲,奥尔良烤鸡,经典苏丹王榴莲比萨,金沙咸蛋黄,意大利肉酱面,8英寸经典苏丹王榴莲比萨,夏威夷比萨,超级豪华比萨,金沙咸蛋黄培根比萨,精选比萨2件奥尔良+榴莲,芝士,披萨,比萨,意面",113.298703,23.10514
B0FFF35N6P,金早绿点(蓝色康园店),金早绿点,other_chicken,推荐菜,海珠区,滨江东路560号蓝色康园,050000,餐饮服务;餐饮相关场所;餐饮相关,"芋头糕,糯米鸡,萝卜糕",113.298873,23.104634
B00141RD83,尊宝比萨(达道路店),尊宝比萨,modern,推荐菜,越秀区,达道路13号翠玉大厦F1层,050300,餐饮服务;快餐厅;快餐厅,"和风照烧披萨,骨肉相连,装“苏丹王d24榴莲披萨,一超级豪华披萨,核桃仁烤鸡披萨,新奥尔良烤鸡翼,蒲烧鳗鱼披萨,海鮮披薩,五香牛肉披萨,意大利肉酱面,夏威夷披萨,鸡米花,吞拿鱼,黑椒牛柳面,红酒鹅肝披萨,披萨,比萨,火腿,意面",113.296658,23.121648
B00140TZQQ,尊宝比萨(五羊邨店),尊宝比萨,modern,推荐菜,越秀区,寺右新马路168号首层(五羊邨地铁站A口步行90米),050300,餐饮服务;快餐厅;快餐厅,"超级豪华比萨,金沙咸蛋黄培根比萨,精选比萨2件奥尔良+榴莲,金沙咸蛋黄,意大利肉酱面,经典苏丹王榴莲,奥尔良烤鸡,经典苏丹王榴莲比萨,意面,披萨,下午茶,堂食,比萨",113.307711,23.121959
B00140C88V,佰搭果(五羊新城店),佰搭果,other_chicken,推荐菜,越秀区,五羊新城寺右新马路10号(近长城酒店快乐潇湘东十米),050000,餐饮服务;餐饮相关场所;餐饮相关,"鸡腿,香肠,牛肉",113.301301,23.122302
B0IBYCAQA3,龙门土菜(省农机大厦店),龙门土菜,non_chicken,,海珠区,金菊路38号,050117,餐饮服务;中餐厅;火锅店,土菜,113.30929,23.103189
B0FFJBB9PH,明洞妈妈参鸡汤(四季天地北座店),明洞妈妈参鸡汤,other_chicken,招牌,海珠区,赤岗北路118号四季天地北座F1层128-19,050203,餐饮服务;外国餐厅;韩国料理,"拌饭,五花肉,冷面,鸡肉",113.322255,23.104213
B0FFFTAE35,周黑鸭(广州塔地铁站店),周黑鸭,non_chicken,,海珠区,广州地铁三号线广州塔站CGT-3-2S/3S号,050000,餐饮服务;餐饮相关场所;餐饮相关,虎皮凤爪,113.320085,23.108205
B0KB7SK0SZ,塔斯汀中国汉堡(广州市海珠琶洲汇店),塔斯汀中国汉堡,other_chicken,推荐菜,海珠区,芳园路4-2-2号,050300,餐饮服务;快餐厅;快餐厅,"鸡肉,中国汉堡,鸡腿",113.329826,23.106031
B0KG5U9OOA,四囍·鸡公煲(琶洲汇店),四囍·鸡公煲,modern,招牌,海珠区,芳园路4号之3号之2号,050000,餐饮服务;餐饮相关场所;餐饮相关,"酸菜鱼,鸡肉",113.329884,23.10604
B0FFK1DZXK,广州康莱德酒店·韵轩中餐厅,广州康莱德酒店·韵轩中餐厅,modern,推荐菜,天河区,珠江新城兴民路222号广州康莱德酒店5层,050000,餐饮服务;餐饮相关场所;餐饮相关,"香辣贵妃海皇拌拌面,韵轩脆皮鸡,抹茶芥末虾球,皮皮虾百香果冻,冰烧三层肉,沙姜黑棕鹅掌亦,脆皮鸡,龙虾,下午茶,牛肉",113.326772,23.118369
B0L3XZ14HG,秋盈手撕鸡(猎德店),秋盈手撕鸡,traditional,招牌,天河区,海文路20号,050000,餐饮服务;餐饮相关场所;餐饮相关,手撕鸡,113.331196,23.117499
B0FFLANETG,华辉拉肠(猎德店),华辉拉肠,other_chicken,推荐菜,天河区,花城大道88号(猎德地铁站B口步行70米),050300,餐饮服务;快餐厅;快餐厅,"单人餐,肠粉,招牌鸡蛋肠",113.327034,23.120523
B0HACNSHGA,湛江生态土鸡(猎德村复建房3区店),湛江生态土鸡,traditional,招牌,天河区,海文路与海月路交叉口东北80米,050117,餐饮服务;中餐厅;火锅店,,113.331545,23.117382
B0JRLS5G3D,广州大排档(琶醍店),广州大排档,traditional,推荐菜,海珠区,阅江西路118号珠江琶醍C区(7-11旁电梯直上)4-5楼,050103,餐饮服务;中餐厅;广东菜(粤菜),"三丝炒面,招牌干炒牛河,一网打尽,甜美活虾粥,椒丝腐乳炒生菜,濑尿虾,生蚝,脆皮石歧乳鸽,一虾三食,招牌十味手撕鸡,大排档,糖水,招牌干炒牛河,茅根竹蔗水",113.333342,23.110222
B0FFLCYSPR,川府尹,川府尹,modern,推荐菜,天河区,冼村路5号凯华国际中心4楼全层,050102,餐饮服务;中餐厅;四川菜(川菜),"花椒馋嘴蛙,菜品,府尹麻婆龙虾,磁器口毛血旺,夫妻肺片,炝锅丁桂鱼,冰粉,毛血旺,私房菜,辣子鸡,酸菜鱼,五花肉,麻婆豆腐,家常菜,鸡肉,一品口水鸡,夫妻肺片,酸菜鱼,酸菜桂鱼,担担面,麻婆豆腐,磁器口毛血旺",113.321999,23.120002
B0KAJZ6N8F,牛扒先生(花城汇店),牛扒先生,non_chicken,,天河区,花城大道89号花城汇南区B1层,050000,餐饮服务;餐饮相关场所;餐饮相关,"牛肉,牛排,薯条,牛扒",113.318901,23.12035
B0L1JZ720H,鲍馬爺·首创鲍鱼鸡(国金天地),鲍馬爺·首创鲍鱼鸡,other_chicken,招牌,天河区,珠江西路5号广州国际金融中心F5层,050100,餐饮服务;中餐厅;中餐厅,鲍鱼鸡,113.317483,23.120922
B0K0P5K3JL,山顶清远鸡粥,山顶清远鸡粥,traditional,招牌,天河区,海清路13号09铺自编之一,050100,餐饮服务;中餐厅;中餐厅,"炒螺蛳,茅根竹蔗水,紫苏炒乡下田螺,糖水",113.332829,23.117452
B0LD4OQ8NS,椰八珍橄榄鸡火锅(四季天地店),椰八珍橄榄鸡火锅,other_chicken,招牌,海珠区,赤岗北路118号四季天地南座,050117,餐饮服务;中餐厅;火锅店,"八珍,鸡火锅",113.322362,23.102971
B0M6P7MZEY,甘煸记·干煸辣子鸡(广州花城汇店),甘煸记·干煸辣子鸡,modern,招牌,天河区,冼村街道花城汇中区负一层,050100,餐饮服务;中餐厅;中餐厅,,113.318964,23.12233
B0LK9RBB5E,不可炸鸡BOOCUR CHICKEN(广州珠江新城店),不可炸鸡BOOCURCHICKEN,modern,招牌,天河区,猎德街道富力盈凯广场负2楼,050000,餐饮服务;餐饮相关场所;餐饮相关,炸鸡,113.316519,23.121386
B0J3USUSED,富丰食品湛江白切鸡(富力盈凯广场店),富丰食品湛江白切鸡,traditional,招牌,天河区,猎德街道华夏路16号富力盈凯广场负二楼B208,050100,餐饮服务;中餐厅;中餐厅,,113.316448,23.121258
B0KKVC52GB,番佬掂·劲脆烧肉(三七互娱店),番佬掂·劲脆烧肉,non_chicken,,海珠区,磨碟沙大街115号,050100,餐饮服务;中餐厅;中餐厅,"烧腊,烧鹅,烧肉",113.332866,23.106299
B0I235YUJN,Glug Glug Glug·Burgundy Bistro,GlugGlugGlug·BurgundyBistro,other_chicken,推荐菜,天河区,清风街27号广粤天地86铺,050000,餐饮服务;餐饮相关场所;餐饮相关,"双人餐,意面,鸡肉,沙拉",113.334083,23.118254
B0FFJ8YLJM,半岛豪苑(广州K11购物艺术中心店),半岛豪苑,traditional,推荐菜,天河区,珠江新城珠江东路6号周大福金融中心K1楼,050101,餐饮服务;中餐厅;综合酒楼,"大虾,点心,牛肉,鸡肉,咸水角,半岛虾饺皇,糯米鸡,金牌豉油鸡,马拉糕,黑金流沙包,招牌玻璃乳鸽",113.320724,23.120738
B00141V8X1,汉堡王(广州花城汇中区),汉堡王,other_chicken,推荐菜,天河区,冼村街道花城大道89号花城汇中区194铺,050300,餐饮服务;快餐厅;快餐厅,"鸡块,双人餐,单人餐,汉堡,薯条",113.319276,23.12228
B0FFFHJEKB,麦当劳(花城大道第四分店餐厅),麦当劳,other_chicken,推荐菜,天河区,珠江新城花城大道88号(猎德地铁站A口旁),050302,餐饮服务;快餐厅;麦当劳,"小薯条,麦乐鸡块餐,麦乐鸡翅,吉士蛋,香满嫩鸡加长堡,麦香鸡大套餐,板烧鸡腿早晨全餐配鲜煮咖啡,新款大雪糕,开心乐园餐配小薯条,墨西哥烧烤风味鸡腿堡大套餐,抹茶奥利奥甜筒,抹茶奥利奥圆筒大雪糕,原味菠萝果酱圆筒大雪糕,麦香鱼汉堡大套餐,草莓圣代,鸡翅,汉堡,下午茶,双人餐,薯条",113.326698,23.120657
B0FFFDNI5T,麦当劳(花城大道第三店),麦当劳,other_chicken,推荐菜,天河区,花城大道89号花城汇南区B1层,050302,餐饮服务;快餐厅;麦当劳,"板烧美味三件套,麦辣美味三件套,大脆鸡扒麦满分组合,人气美味尽享套餐,家有金桶（脆鸡版）,原味板烧鸡腿麦满分组合,麦当劳超值嗨餐,（2-3人餐）,家有金桶（汉堡版）,可乐鸡翅,麦辣鸡腿堡,安格斯系列,巨无霸汉堡,汉堡,双人餐,薯条",113.319521,23.12099
B0HAHAI4QR,麦当劳(广州柏悦酒餐厅),麦当劳,other_chicken,推荐菜,天河区,华夏路16号自编104号铺(珠江新城地铁站C口旁),050302,餐饮服务;快餐厅;麦当劳,"大脆鸡扒麦满分组合,人气美味尽享套餐,板烧美味三件套,麦辣美味三件套,原味板烧鸡腿麦满分组合,可乐鸡翅,巨无霸汉堡,安格斯系列,麦辣鸡腿堡,麦当劳超值嗨餐,（2-3人餐）,家有金桶（汉堡版）,家有金桶（脆鸡版）,薯条,双人餐,汉堡",113.316421,23.121253
B0K3JD9IGL,麦当劳(三七互娱总部分店),麦当劳,non_chicken,,海珠区,琶洲街道芳园路37号三七互娱全球总部大厦2楼,050302,餐饮服务;快餐厅;麦当劳,双人餐,113.332986,23.106763
B00141RLWS,1920+’CAB黑安格斯牛扒·水晶花园(柏悦府店),1920+’CAB黑安格斯牛扒·水晶花园,non_chicken,,天河区,花城大道100号101房101A,050214,餐饮服务;外国餐厅;德国菜,"双人餐,香肠",113.330458,23.119308
B0KAXUDZ54,煲仔正·老广州煲仔饭(花城汇店),煲仔正·老广州煲仔饭,other_chicken,推荐菜,天河区,珠江新城花城大道89号花城汇南区C16铺,050100,餐饮服务;中餐厅;中餐厅,"煲仔饭,鸡肉",113.319213,23.12069
B0FFLANFF6,好客家(k11店),好客家,other_chicken,推荐菜,天河区,珠江东路6号广州周大福金融中心B101,050100,餐饮服务;中餐厅;中餐厅,"豆腐,鸡肉",113.320862,23.120128
B00141RVI8,花城苑(海心沙店),花城苑,other_chicken,推荐菜,天河区,海心沙岛东区2号楼(海心沙地铁站A口步行450米),050100,餐饮服务;中餐厅;中餐厅,"大肠,点心,蛋挞,糯米鸡",113.322556,23.114298
B00141K4S5,炳胜公馆(珠江新城店),炳胜公馆,other_chicken,推荐菜,天河区,珠江新城冼村路2号5楼,050103|100200,餐饮服务;中餐厅;广东菜(粤菜)|住宿服务;旅馆招待所;旅馆招待所,"脆皮叉烧拼秘制黑叉烧,招牌菠萝包,双拼鹅肠,半打榴莲酥,古法烧鹅,白灼豆腐,捞起鱼生,烧三文鱼腩,招牌虾生,清蒸山水豆腐,水鬼重,即烘葡挞,金沙汤圆,冷水猪肚,怪味猪手,螃蟹,烧鹅,私房菜,素食,菠萝包,叉烧包,公馆虾饺皇,马爹利姜撞奶,招牌菠萝包,荔湾艇仔粥,公馆炒牛河,蟹黄干蒸烧麦,雪花牛肉黑叉烧乳猪烧味拼盘,糯米鸡,蜜汁蒸凤爪,煲仔饭,芥末萝卜糕,叉烧餐包,秘制脆皮灌汤烧鹅,烤乳猪,黑叉烧,濑粉,咸煎饼,干炒牛河,叉烧,点心,烧味,茄子",113.322889,23.117402
B0LUPA1YOT,米拉吉新疆主题餐厅,米拉吉新疆主题餐厅,modern,推荐菜,天河区,猎德西浦大街8号,050000,餐饮服务;餐饮相关场所;餐饮相关,新疆大盘鸡,113.326293,23.117141
B0J6PU2OW6,炳胜私厨(中达旗舰店),炳胜私厨,modern,推荐菜,天河区,兴国路21号保利中达广场201,050100,餐饮服务;中餐厅;中餐厅,"发酵剁椒蒸珍稀鱼,无骨鲫鱼煎手作拉肠,高汤咸柠檬烧海钓大黄鱼,蟹肉冬瓜盅,碧玉翡翠水晶饺,陈年老花雕蒸东海大鲥鱼,玫瑰盐煎5A雪花牛肉,炳胜辣虾菇玉带水晶饺,山泉水肥芽菜炒斗门肉蟹,黑椒炒波士顿龙虾,香酥琵琶石蛙腿,黑椒汁生烧安格斯牛肋骨,新会东甲三十年陈蜜炖燕窝,招牌菠萝包,精选牛腩清汤米线,5J火腿九年百合炒棕榈芯,炳胜辣肉饼蒸松叶蟹,鲜螺片鲍鱼捞文昌鸡,斗门膏蟹焖黑毛节瓜,红标雪花牛肉黑叉烧,发酵剁椒肥肠蒸红玫瑰,高汤咸柠檬烧捕捞大黄鱼,精致小红枣,五香吊烧脆皮文昌鸡,老西关姜撞奶,鸡肉,招牌菠萝包,粉果,冬菇鸡饺,点心,米线",113.324799,23.118084
B0J3JRVULI,英迪格酒店·洀·邻里餐厅,英迪格酒店·洀·邻里餐厅,other_chicken,推荐菜,天河区,临江大道32号海心沙东区广州海心沙英迪格酒店1层,050000,餐饮服务;餐饮相关场所;餐饮相关,"下午茶,生蚝,鸡肉,杨枝甘露",113.323931,23.11399
B00141VB0C,广州酒家·粤宴花城,广州酒家·粤宴花城,traditional,推荐菜,天河区,临江大道57号中和广场2层(广东省博物馆东门对面),050103,餐饮服务;中餐厅;广东菜(粤菜),"养生核桃包,干炒牛河,金牌鲜味虾饺皇,酱皇豉香蒸凤爪,烧鹅叉烧拼盘,至尊古法烧鹅,生烧乳鸽皇,岭南特色蒸原生态桂花鱼,xo酱爆萝卜糕,清香白切鸡,笋尖水晶鲜虾饺,高桶葡式西杏蛋挞,家乡煎葱油饼,桂花糕,葡挞,早茶,点心,烧鹅,牛肉,红肠粉,生烧乳鸽皇,燕窝双皮奶,马拉糕,酱皇豉香蒸凤爪,干炒牛河,烧鹅拼叉烧",113.32314,23.116836
B0LGX56QED,潮喜会(天德店),潮喜会,modern,推荐菜,天河区,临江⼤道395号天德广场40楼,050000,餐饮服务;餐饮相关场所;餐饮相关,"狮首三珍宴,琉璃碧叶时蔬汇,狮头鹅鹅肠,护国菜汁松叶蟹,古法熟卤狮头鹅头,潮汕鱼饭,冰魄象拔蚌刺身,潮式咸柠檬焗小青龙,古法熟卤三宝,冰魄膏蟹,潮式生腌虾,鲍鱼珍珠石榴球,游龙东星斑,金不换焗鲜鲍,潮式老菜脯粥,卤水火锅,红烧金勾翅,潮式脆皮鸡,窖藏老香黄露,双人餐",113.327638,23.116355
B0KDPZTBAC,大榕树下顺德人家(天德旗舰店),大榕树下顺德人家,other_chicken,推荐菜,天河区,临江大道391号天德广场1楼101铺,050100,餐饮服务;中餐厅;中餐厅,"咸蛋黄啫鲜虾,脆皮BB鸽,顺德小炒皇,凉瓜炒牛肉,顺德捞鱼皮,古法菠萝咕噜肉,七彩捞鸡,酸菜炒大肠,双菇爆鹅肠,顺德豉味碌鹅,大良炸脆奶,上汤桑叶苗,鹿茸菌炖竹丝鸡,六婶黄皮骨,山楂红烧肉,杂菇浸鱼腐,黄豆苦瓜炖龙骨,老广腊味煲仔饭,鲍汁海皇豆腐,顺德公煎酿莲藕,鲜人参海底椰炖老鸡,石橄榄炖土猪肉,均安墨鱼饼,双人餐,古法菠萝咕噜肉",113.32756,23.117247
B0G2UO4GIG,喜糖酒家(广报中心店),喜糖酒家,other_chicken,推荐菜,海珠区,阅江西路370号广报中心北塔4楼(猎德大桥旁边),050100,餐饮服务;中餐厅;中餐厅,"点心,鸡肉,南瓜炸煎堆,红米肠粉,糯米鸡,香煎萝卜糕,姜撞奶,古铜南乳咸煎饼,和牛安虾咸水角",113.331313,23.109567
B0FFHCPEKN,花悦庭·果木烤鸭(天汇igc店),花悦庭·果木烤鸭,other_chicken,推荐菜,天河区,珠江新城兴民路222号天汇广场igcL301铺,050100,餐饮服务;中餐厅;中餐厅,"传统北京果木烤鸭,陈皮蜜饯雪梨,麻辣无骨黑凤爪,蟹黄扒滑豆腐,一鸭两食的鸭汤,金沙虾球,虾籽面,鲍鱼美酒鸡,米汤时蔬,凉瓜鸭,鳝糊,小花螺,椒盐鸭,糖醋小排,蘑菇流沙包,烤鸭,双人餐,传统北京果木烤鸭,北京烤鸭",113.325706,23.118338
B00141SAW5,大良毋米粥·粥水火锅(猎德店),大良毋米粥·粥水火锅,traditional,推荐菜,天河区,珠江新城海文路20号,050117,餐饮服务;中餐厅;火锅店,"油条,毋米粥,xo酱炒陈村粉,炸牛奶,清远鸡,沙虾,香煎鱼饼,煎焗鱼头,鲜北极贝,龙趸,牛肉丸,薄餐,煎饺,伦教糕,猪肉肠粉,牛肉,鸡肉,鲍鱼,猪肉,叉烧,生蚝",113.331353,23.117763
B0KKTP8VTV,大榕树下顺德菜(广州塔臻品店),大榕树下顺德菜,other_chicken,推荐菜,海珠区,广州塔路8号广州塔广场B1层,050100,餐饮服务;中餐厅;中餐厅,"顺德豉味碌鹅,大良炸脆奶,上汤桑叶苗,鹿茸菌炖竹丝鸡,六婶黄皮骨,山楂红烧肉,杂菇浸鱼腐,老广腊味煲仔饭,鲍汁海皇豆腐,顺德公煎酿莲藕,鲜人参海底椰炖老鸡,石橄榄炖土猪肉,均安墨鱼饼,黄豆苦瓜炖龙骨,咸蛋黄啫鲜虾,脆皮BB鸽,顺德捞鱼皮,古法菠萝咕噜肉,七彩捞鸡,酸菜炒大肠,双人餐,顺德拌鱼皮",113.319008,23.107946
B0G0RUD7BG,食野精舍·品味食野(猎德村复建房1区店),食野精舍·品味食野,traditional,推荐菜,天河区,猎德大道2号101铺,050103,餐饮服务;中餐厅;广东菜(粤菜),"私房菜,鸡肉,玫瑰豉油鸡",113.328869,23.116088
B0FFKYRZE1,陶陶居·雅园(凯华国际中心店),陶陶居·雅园,traditional,推荐菜,天河区,珠江新城冼村路5号凯华国际中心六楼,050100,餐饮服务;中餐厅;中餐厅,"陶陶居大虾饺,冰镇咕噜肉,清蒸东星斑,传统鲍汁叉烧,金牌蜜汁叉烧,百年烧鹅,黑鱼子香菇烧麦皇,堂食,虾仁,叉烧,早茶,烧鹅,牛肉,芝士,白切葵花鸡,干蒸烧麦,顺德小黄姜撞奶,白切鸡,山泉米浆煎萝卜糕,黑鱼子瑶柱烧卖皇",113.322129,23.120195
B0FFFTMC3M,广州塔云星筷子荟餐厅(广州塔店),广州塔云星筷子荟餐厅,traditional,推荐菜,海珠区,阅江西路222号广州塔B1层(广州塔地铁站出入口旁),050100,餐饮服务;中餐厅;中餐厅,"蜜汁叉烧,新加坡海南鸡饭,马来喳喳,干炒牛河,烧鹅,肉骨茶,酸菜鱼,芒果芝士蛋糕,烧鸭,杏鲍菇炒牛肉,蜜汁烧肉,扬州炒饭,牛仔骨,生炒菜心,腰果牛柳,手撕鸡,蜜汁叉烧,炒饭,鸡肉",113.319171,23.109124
B00141L05S,2号唐厨(珠江奥莱城店),2号唐厨,other_chicken,推荐菜,天河区,花城大道84号优托邦1座6楼,050101|050103,餐饮服务;中餐厅;综合酒楼|餐饮服务;中餐厅;广东菜(粤菜),"唐厨虾饺皇,猪杂粥,招牌佛跳墙,至尊油条,椰汁糕,蛋挞,香橙松糕,甜薄撑,唐厨特色炒牛河,笼仔点心,八爪鱼叉烧酥,干蒸虾饺皇,榴莲酥,xo酱炒萝卜糕,松露蘑菇包,排骨,猪肉,点心,油条,蜜汁叉烧包,黑金流沙包,湾仔艇仔粥,蒜香蒸排骨,榄仁马拉糕,瑶柱糯米鸡,羊城鲜虾饺,鸡仔咸水角",113.324078,23.1209
B00141KSC2,丽轩中餐厅,丽轩中餐厅,other_chicken,推荐菜,天河区,兴安路3号广州富力丽思卡尔顿酒店3层(近省博物馆),050103,餐饮服务;中餐厅;广东菜(粤菜),"点心,虾球,燕窝蛋,炖雪梨,XO酱萝卜糕,麒麟鸡,三葱焖虾球,鲜虾肠粉,豆沙煎软糕,扇形金蔬,铁锅酒香豉油乳鸽,龙岗鸡,澳洲龙虾,古老肉,麦片虾球,杨枝甘露,脆皮烧肉",113.322053,23.118774
B00140UBKF,头啖汤(利雅湾店),头啖汤,traditional,推荐菜,天河区,冼村路80号利雅湾5层92号,050100,餐饮服务;中餐厅;中餐厅,"海鲜,东星斑,咕噜鱼球,各色的汤,账单,冰黄鳝,蒜香骨,煲汤,干煎鱼,全素包,卤水,叉烧,旦角,云吞面,白切鸡,鸡肉,炒饭",113.322931,23.119356
B0MGAUER61,270º视界·江醍,270º视界·江醍,other_chicken,推荐菜,海珠区,磨碟沙大街118号之一602室,050103,餐饮服务;中餐厅;广东菜(粤菜),"5j火腿蒸香芋冬瓜,百香果金萝咕嘟肉,芦笋山药炒煎酿羊肚菌,至尊八宝佛跳墙,红油花枝卷,芥末沙拉虾球,1:1复刻莫氏鸡煲,樱花稻庭葱香冷面,樱桃鹅肝,五黑养生豆腐焖虾仁,意大利黑醋汁黑豚肉,清蒸石斑鱼,4头黑松露意境鲍鱼,蜂巢炸生蚝,石斛青榄炖老鸭,鲍鱼,冷面,冬瓜,堂食,鸡煲",113.332646,23.110195
B0LKUAWTRJ,农园蔬宴鲜蔬火锅餐厅,农园蔬宴鲜蔬火锅餐厅,other_chicken,推荐菜,海珠区,"琶洲大道17号之1,17号之2号",050117,餐饮服务;中餐厅;火锅店,"特色蔬菜,水果鸡套餐,香茅叶蒸鸡,川香烈皖,蒸鸡",113.331944,23.104706
B0L6BDPT1U,颐鲜佰味·现炒家常菜(广报中心店),颐鲜佰味·现炒家常菜,modern,推荐菜,海珠区,琶洲街道阅江西路368号第一层102铺自编02号、03号,050000,餐饮服务;餐饮相关场所;餐饮相关,"台湾三杯鸡,香糯红烧肉,牛腩腐竹,下饭小炒肉,家常菜",113.330951,23.108529
B0L3659FBN,菌小白·野生菌火锅(琶醍店),菌小白·野生菌火锅,other_chicken,推荐菜,海珠区,磨碟沙大街118号之八401铺,050117,餐饮服务;中餐厅;火锅店,"牛肝菌,鸡枞菌,鹿茸菌,见手青,野生菌火锅",113.333113,23.109757
B0KUZXOH8T,蒙自源(广州海珠四季天地店),蒙自源,non_chicken,,海珠区,赤岗北路118号(四季天地广场)首层自编之一D88一2号7,050100,餐饮服务;中餐厅;中餐厅,"米粉,下午茶,堂食",113.322683,23.103178
B0KU6L4QBV,创膳金牌烧鹅(广州塔店),创膳金牌烧鹅,modern,推荐菜,海珠区,艺苑路213号101铺(自编01号之08铺),050100,餐饮服务;中餐厅;中餐厅,"小海鲜,大虾,烧腊,辣子鸡,小炒黄牛肉,鸭肉",113.317706,23.106928
B0KKGSCN61,榕意·川味之美(广州塔店),榕意·川味之美,modern,推荐菜,海珠区,广州塔路8号首层105-2,050000,餐饮服务;餐饮相关场所;餐饮相关,"炒饭,鸡肉,榕意毛血旺,红油抄手,麻婆豆腐,川味20蒜香辣子鸡,菌香口水鸡",113.318825,23.105932
B0KKB737SA,欧锦和厨房(广州塔店),欧锦和厨房,other_chicken,推荐菜,海珠区,广州塔路8号首层125号,050100,餐饮服务;中餐厅;中餐厅,"黑松露锦绣捞鸡,马友咸鱼蒸肉饼,砂锅五指毛桃焗鸡,七彩祥云捞鱼生,龙虾蟹黄烩山水豆腐,蟹黄,顺德红豆双皮奶,市桥啫排骨,啫啫煲",113.318452,23.106553
B0KK9ZTDST,遇见小面(广报中心店),遇见小面,modern,推荐菜,海珠区,阅江西路368号广州报业文化中心一楼106铺01铺,050100,餐饮服务;中餐厅;中餐厅,"阳光番茄牛肉面,脆皮半只鸡麻辣小面,内蒙古羔羊羊肉串(3串),酥脆鸡排(1块),川味酸菜牛肉面,酸菜卤肉饭,酥掉渣芝麻烧饼(1个),金碗酸辣粉,脆皮半只鸡阳光番茄汤面,酸菜卤肉面,老麻抄手,爆浆豆腐串(2串),琥珀冰粉,葱酥骨汤抄手,白玉厚椰乳,秘制脆皮半只鸡,销魂擂椒卤肉面,酸辣粉",113.330586,23.108539
B0KK0ADTND,好利来(广州塔店),好利来,non_chicken,,海珠区,广州塔路8号广州塔广场地面一层L109a商铺,050800,餐饮服务;糕饼店;糕饼店,"芋泥,生日蛋糕",113.318529,23.107067
B0K2NNQC99,七寸飝·省港怀旧手工菜,七寸飝·省港怀旧手工菜,traditional,推荐菜,天河区,南岳大厦3层(六合家宴门口上电梯3楼右转),050100,餐饮服务;中餐厅;中餐厅,"生腌膏蟹,脆皮黑金乳鸽,干煸家乡黑毛土鸭,六头鲍鱼焖蝴蝶腩,潮州鱼生,九层塔香焗海蟹,黑松露蒸家鸡,酸甜香喷咕噜肉,腊味煲仔饭,春根藤水鱼煲鸡汤,咸鱼肉饼煲仔饭,香焗九肚鱼,威士忌炭烧本港响锣,脆皮大肠,姜油甲鱼,葱花金钱腱,生拆蟹肉煎翅烙,杜远凉瓜焖狮头鹅掌翅煲,飘香生啫走地鸡,大乡里羊肉,双人餐,羊肉",113.315174,23.121651
B0K1ASQH50,莲香楼·品苑(珠江公园),莲香楼·品苑,other_chicken,推荐菜,天河区,珠江公园南门东70米,050000,餐饮服务;餐饮相关场所;餐饮相关,"干蒸烧麦,宵夜,蒸排骨,莲蓉菠萝包,糖水,陈皮豉汁排骨,榄仁马拉糕,糯米鸡,黑鱼籽流心烧卖,咸水角,山楂叉烧包,巧克力杨枝甘露,XO酱萝卜糕,羊肚菌上素肠粉,荔湾艇仔粥,杨枝甘露,点心,牛肉",113.334408,23.120709
B0JGYSY7SV,JMC·云醍,JMC·云醍,other_chicken,推荐菜,海珠区,新港东路磨碟沙大街118号702室,050000,餐饮服务;餐饮相关场所;餐饮相关,"温泉玉子卡邦尼扁面,香茅猪颈肉,一口花菜,法国黑珍珠生蚝,黑松露黄金养麦面,海鲜墨鱼汁扁面,和牛总汇汉堡,伊比利火腿密瓜,特制三文鱼色拉,Whisky,Sour,紫霞,伊比利亚黑毛猪肋排,烟花女贻贝扁面,牛肉至上(牛板腱),西柚香芒色拉,德国脆皮猪手,苦尽甘来,蒜香鸡翅,黑蒜羊架,西冷牛扒,黄金酱翡翠螺,伊比利火腿披萨,香茅酱南美大虾,小麦鹅肝烧饭,黑松露扣八头干鲍鱼,特制三文鱼黄金荞麦面,汉堡,牛肉",113.332661,23.110162
B0JBN5XY5X,新天地潮菜(珠江道店),新天地潮菜,modern,推荐菜,天河区,猎德大道20号珠江道大厦主楼3楼,050100,餐饮服务;中餐厅;中餐厅,"潮菜,牡蛎,脆皮鸡,芋头",113.329027,23.121927
B0J0ZAAUI3,大榕树下顺德菜(花城汇店),大榕树下顺德菜,other_chicken,推荐菜,天河区,珠江西路花城汇商场南区B1层A19,050103,餐饮服务;中餐厅;广东菜(粤菜),"老广腊味煲仔饭,鲍汁海皇豆腐,顺德公煎酿莲藕,鲜人参海底椰炖老鸡,石橄榄炖土猪肉,均安墨鱼饼,咸蛋黄啫鲜虾,脆皮BB鸽,顺德豉味碌鹅,大良炸脆奶,上汤桑叶苗,鹿茸菌炖竹丝鸡,六婶黄皮骨,山楂红烧肉,杂菇浸鱼腐,黄豆苦瓜炖龙骨,顺德捞鱼皮,古法菠萝咕噜肉,七彩捞鸡,酸菜炒大肠,双人餐",113.318975,23.120167
B0G0465X6N,常来小聚(国金天地店),常来小聚,traditional,推荐菜,天河区,珠江西四街与珠江西五街交叉口东60米,050100,餐饮服务;中餐厅;中餐厅,"双人餐,家常菜,杨枝甘露,煲仔饭,牛肉,鸡肉,二十年老陈皮豉油鸡,孖宝腊味煲仔饭",113.317597,23.120855
B0FFIMBYMG,及第粉(花城南店),及第粉,non_chicken,,天河区,花城大道89号之一负一层3001号商铺部位D06,050100,餐饮服务;中餐厅;中餐厅,"及第/瘦肉汤,及第/瘦肉汤粉,招牌捞手工沙河粉,银耳百合糖水,咸煎饼,顺德双皮奶,滋补猪脚姜,单人餐",113.319295,23.119757
B0FFGLIZYZ,川国演义(国金天地店),川国演义,modern,推荐菜,天河区,珠江西路5号广州国际金融中心(西塔)友谊商店4楼,050102,餐饮服务;中餐厅;四川菜(川菜),"酸菜鲈鱼,担担面,蒜泥白肉,口水鸡,毛血旺,夫妻肺片,水煮鱼,沸腾鱼,自选麻辣香锅,馋嘴蛙,沸腾水煮桂鱼,自选牛油毛血旺,松花皮蛋,川北酸辣凉粉,橄榄油拌秋葵,小酥肉,酸菜鱼,口水鸡,毛肚,炒饭,麻婆豆腐,宫保鸡丁,烤鸭,肥肠,辣子鸡,重庆小面,酸菜鱼,水煮牛肉,夫妻肺片,原始牛油毛血旺,麻辣担担面,酸菜鲈鱼",113.317452,23.120987
B0FFGCDLJ9,肯德基(花城湾店),肯德基,modern,推荐菜,天河区,珠江新城花城大道86号(猎德地铁站A口旁),050301,餐饮服务;快餐厅;肯德基,"醇香土豆泥,薯条,红豆派,肯大大鸡排,KFC芋缘花淇淋,葡式蛋挞,芋缘花淇淋,KFC香辣（劲脆）鸡腿堡,吮指原味鸡,鸡米花,海苔岩烧大鸡腿饭,黄金鸡块,蔬菜沙拉,可乐,香辣鸡翅,KFC老北京鸡肉卷,小食拼盘,玉米沙拉,伴柠伴桔鲜果茶,现磨咖啡,新奥尔良烤鸡腿堡,汉堡,鸡肉",113.326534,23.120727
B0FFG1DGDV,六个大厨·秘制粤菜(广州塔店),六个大厨·秘制粤菜,traditional,推荐菜,海珠区,赤岗北路118号四季天地南座二层,050108|050103,餐饮服务;中餐厅;湖南菜(湘菜)|餐饮服务;中餐厅;广东菜(粤菜),"鸡肉,双人餐,秘制豉油鸡,爆珠红豆双皮奶,捞起鱼皮",113.322898,23.102909
B0FFFV1WO5,肥猫茶餐厅(花城汇中区店),肥猫茶餐厅,other_chicken,推荐菜,天河区,花城大道89号花城汇中区负一层161-163铺,050100,餐饮服务;中餐厅;中餐厅,"虫草花汽锅鸡米线,筒骨粉,肥猫小面,肥肠酸辣粉,鲜菇鸡米线,杂酱米线,豆豉鸭嘴鱼,红烧牛肉面,豌豆杂酱面,冬阴功柠檬鸭嘴雨,小面,红油抄手,小炒肉套餐,香菇鸡肉面,招牌酸菜鱼套餐,单人餐,双人餐,柠檬茶",113.318904,23.122312
B0FFF6UTE8,利口福(省博物馆店),利口福,modern,推荐菜,天河区,猎德街道珠江东路2号博物馆2楼夹楼,050800,餐饮服务;糕饼店;糕饼店,"黑椒什菌焗牛仔骨,鸡汁南瓜芋头,鳕鱼茄子煲,鲜虾艇仔粥,鲜虾支竹蒸水东芥,鲜芒物语,鱿鱼三杯鸡煲,鱼片粥,风味猫耳菌,陈皮牛肉球,金银蒜豉汁蒸排骨,金粟精粮饼,龙王干蒸,龙井虾仁,黑支竹捞水东芥,奶油,鸡肉",113.321493,23.11729
B00140U08F,SKY NO.1空中一号,SKYNO.1空中一号,traditional,推荐菜,天河区,华夏路1号信合大厦28-31层,050100,餐饮服务;中餐厅;中餐厅,"红米肠粉,芝士龙虾伊面,玫瑰豉油鸡,青蔬炒带子,擂沙汤圆,烧腊三宝,原只鲍鱼烧鹅酥,小笼包,云南野菌饺,凤爪,鹅肝,牛肉,黑金流沙包,酱香蒸凤爪,避风塘天然虾饺,像生安虾咸水角,豉蒜香芋蒸排骨,流沙煎堆,龙虾汤烧卖皇,红烧玻璃乳鸽,黑松露素粉果,港式干炒牛河,蜜汁黑豚叉烧,点心,干蒸烧麦",113.315247,23.117077
B0KRHRV2Z9,赛百味 SUBWAY(广州国金ifc店),赛百味 SUBWAY,modern,推荐菜,天河区,珠江西路5号广州IFC国金天地B1层,050300,餐饮服务;快餐厅;快餐厅,"西式火腿三明治,黑胡椒厚切牛排三明治,金枪鱼三明治,火鸡胸百味卷,照烧鸡蛋料双拼三明治三件套,香溢金枪鱼双拼三明治三件套,黑胡椒厚切牛排三明治三件套,日式照烧鸡三明治,双人餐,三明治",113.317387,23.121049
B0KKZ9VIF1,GOAT山羊(广州塔广场店),GOAT山羊,non_chicken,,海珠区,广州塔路8号广州塔南广场负一层B140-141号,050000,餐饮服务;餐饮相关场所;餐饮相关,"双人餐,汉堡",113.319314,23.105848
B0JUMBY11Y,Pho's Love越莱·越法小酒馆(广粤店),Pho'sLove越莱·越法小酒馆,other_chicken,推荐菜,天河区,海月路与海清路交叉口东120米,050200,餐饮服务;外国餐厅;外国餐厅,"单人餐,鸡肉",113.334248,23.116746
B0JU9ABUIA,荒野生存(海心沙烤肉店),荒野生存,non_chicken,,天河区,猎德街道临江大道海心沙亚运公园西北门3号桥平台309铺,050000,餐饮服务;餐饮相关场所;餐饮相关,"牛肉粒,阿根廷牛肋条,巴西带皮五花肉,手打墨鱼饼,原切眼盖肉,双人餐",113.316634,23.11371
B0JB6CHYJ6,及第粉·手作河粉(猎德店),及第粉·手作河粉,non_chicken,,天河区,花城大道86号1-4层(部位首层自编103A),050000,餐饮服务;餐饮相关场所;餐饮相关,"及第/瘦肉汤,及第/瘦肉汤粉,招牌捞手工沙河粉,粉面,营养早餐,河粉,米粉,韭菜",113.325713,23.120784
B0HKUL0GUK,蒙自源(广州天河猎德店),蒙自源,non_chicken,,天河区,花城大道88号(猎德地铁站B口旁),050300,餐饮服务;快餐厅;快餐厅,"米线,葱油饼",113.327476,23.120345
B0G2U15B4L,家味缘,家味缘,non_chicken,,海珠区,艺景路234号,050100,餐饮服务;中餐厅;中餐厅,大排档,113.315195,23.103251
B0FFJHY2KQ,胡桃里音乐酒馆(广州塔店),胡桃里音乐酒馆,modern,推荐菜,海珠区,赤岗北路118号7四季天地3楼,050102|080603,餐饮服务;中餐厅;四川菜(川菜)|体育休闲服务;影剧院;剧场,"椰子,毛血旺,酸菜鱼,烧鸡,鱿鱼,鸡肉,柠檬,毛肚,烤鸭,初恋咕咾肉,肥肠辣子鸡,咕噜肉,绣球菌毛血旺",113.322295,23.102816
B0FFHGYMCU,遇见小面(花城汇南区店),遇见小面,modern,推荐菜,天河区,花城大道89号花城汇南区海印都荟城负一楼B02a铺,050118,餐饮服务;中餐厅;特色/地方风味餐厅,"阳光番茄牛肉面,脆皮半只鸡麻辣小面,内蒙古羔羊羊肉串(3串),酥脆鸡排(1块),川味酸菜牛肉面,酸菜卤肉饭,酸菜卤肉面,老麻抄手,爆浆豆腐串(2串),琥珀冰粉,葱酥骨汤抄手,白玉厚椰乳,秘制脆皮半只鸡,销魂擂椒卤肉面,酥掉渣芝麻烧饼(1个),金碗酸辣粉,脆皮半只鸡阳光番茄汤面,柠檬茶,酸辣粉,小面,肥牛",113.318882,23.121316
B00141R6AW,肯德基(赤岗北店),肯德基,modern,推荐菜,海珠区,赤岗北路118号首层自编A01-A03铺,050301,餐饮服务;快餐厅;肯德基,"玉米沙拉,伴柠伴桔鲜果茶,现磨咖啡,新奥尔良烤鸡腿堡,香辣鸡翅,肯大大鸡排,醇香土豆泥,薯条,红豆派,KFC老北京鸡肉卷,小食拼盘,KFC芋缘花淇淋,葡式蛋挞,芋缘花淇淋,KFC香辣（劲脆）鸡腿堡,吮指原味鸡,海苔岩烧大鸡腿饭,黄金鸡块,蔬菜沙拉,可乐,鸡米花,鸡肉,双人餐,鸡翅",113.322234,23.103168
B00141JN52,肯德基(大剧院店),肯德基,modern,推荐菜,天河区,珠江新城珠江西路1号广州大剧院多功能厅一层,050301,餐饮服务;快餐厅;肯德基,"吮指原味鸡,可乐,肯大大鸡排,黄金鸡块,蔬菜沙拉,醇香土豆泥,薯条,红豆派,海苔岩烧大鸡腿饭,KFC老北京鸡肉卷,小食拼盘,伴柠伴桔鲜果茶,现磨咖啡,新奥尔良烤鸡腿堡,玉米沙拉,鸡米花,香辣鸡翅,KFC芋缘花淇淋,葡式蛋挞,芋缘花淇淋,KFC香辣（劲脆）鸡腿堡,汉堡,蛋挞,鸡肉",113.317798,23.11831
B0HRMAIAIE,周黑鸭(广州珠江新城地铁站店)(暂停营业),周黑鸭,non_chicken,,天河区,广州地铁五号线珠江新城站ZJXC-5-4S、ZJXC-5-5S,050000,餐饮服务;餐饮相关场所;餐饮相关,虎皮凤爪,113.3162,23.121655
B0HUB6D34K,百圣小厨(东风店),百圣小厨,other_chicken,推荐菜,越秀区,东风东路东发街1号203房(东风广场南2门会所2楼),050103,餐饮服务;中餐厅;广东菜(粤菜),"家常菜,鸡肉,大排档,法式菠萝包",113.304583,23.135596
B0FFGPR0LH,聚汇坊· 椰子鸡·猪肚鸡(环市东店),聚汇坊·椰子鸡·猪肚鸡,traditional,招牌,越秀区,天河路16号1层115商,050117,餐饮服务;中餐厅;火锅店,"椰子鸡,烤韭菜,椰青,文昌鸡,竹荪卷,鸡枞,雪花牛肉,米粉,拍青瓜,响铃卷,健康三色面,虾滑,肥牛,椰皇炖奶,腊味瓦煲饭,双人餐,胡椒猪肚鸡文昌鸡,牛肉,鸡肉",113.306462,23.136585
B0K0TCP06M,鸡爷烧鸡·活鸡现烧(杨箕店),鸡爷烧鸡·活鸡现烧,other_chicken,招牌,越秀区,梅花村街道泰兴直街62号二楼(鸡爷烧鸡),050300,餐饮服务;快餐厅;快餐厅,烧鸡,113.306773,23.131169
B0K33GQ582,同仁四季椰子鸡(外商新天地店),同仁四季椰子鸡,modern,招牌,越秀区,广州大道中293号外商新天地F2层,050000,餐饮服务;餐饮相关场所;餐饮相关,"鸡肉,夫妻肺片,一级腊味煲仔饭",113.309083,23.127347
B0FFIG7NWH,创膳金牌烧鹅杨箕店,创膳金牌烧鹅杨箕店,non_chicken,,越秀区,泰兴直街杨箕新街市首层,050300,餐饮服务;快餐厅;快餐厅,单人餐,113.306263,23.130412
B0FFGYTR0D,椰客·海南椰子鸡(289艺术园区店),椰客·海南椰子鸡,modern,招牌,越秀区,大道中路289号1号楼103A房,050100,餐饮服务;中餐厅;中餐厅,"竹笙鲜菌椰子鸡,豆黄金鲜腐竹,安格斯肥牛,木瓜花胶椰子鸡,椰客椰子糖,手打虾滑,香糯椰子船,响铃卷,鸡肉",113.308202,23.126614
B0LGURG4KL,985·蚝旺鸽桑拿鸡煲(杨箕店),985·蚝旺鸽桑拿鸡煲,traditional,招牌,越秀区,新天地街5号201铺(杨箕东地铁站C3口步行420米),050000,餐饮服务;餐饮相关场所;餐饮相关,,113.308285,23.128948
B0HAKPI29D,鸡杂汤粉面饭,鸡杂汤粉面饭,other_chicken,招牌,越秀区,梅花路65号110铺鸡杂汤,050100,餐饮服务;中餐厅;中餐厅,,113.303313,23.133748
B0JANAKBLJ,正宗湛江盐焗鸡,正宗湛江盐焗鸡,traditional,招牌,越秀区,梅花路38号自编号104号取,050000,餐饮服务;餐饮相关场所;餐饮相关,"盐焗鸡,手撕鸡,白切鸡",113.303516,23.133563
B00141R9NW,紫燕百味鸡(共和店),紫燕百味鸡,modern,招牌,越秀区,共和二街33号共和西横街自编12栋首层和西农贸市场A5A6档,050000,餐饮服务;餐饮相关场所;餐饮相关,"藤椒鸡,百味鸡,夫妻肺片,牛肉,素菜",113.299052,23.127914
B0LUO1HTTY,山顶清远鸡·粤菜小炒(外商店),山顶清远鸡·粤菜小炒,traditional,招牌,越秀区,广州大道中293号外商新天地F2层,050000,餐饮服务;餐饮相关场所;餐饮相关,,113.308947,23.126933
B0LRPAR9WN,湛江白切鸡东峻广场店,湛江白切鸡东峻广场店,traditional,招牌,越秀区,东风东路836号东峻广场F1层,050100,餐饮服务;中餐厅;中餐厅,,113.30106,23.133922
B0LAMCBDBU,秋盈手撕鸡(杨箕店),秋盈手撕鸡,traditional,招牌,越秀区,泰兴直街58号金迪大厦西塔首层杨箕市场B01号档,050000,餐饮服务;餐饮相关场所;餐饮相关,手撕鸡,113.306111,23.130348
B0IUCNFHWY,大头唛·啫鸡煲专门店(289艺术园区店),大头唛·啫鸡煲专门店,other_chicken,招牌,越秀区,289艺术园区西门旁(杨箕东地铁站C3口步行220米),050100,餐饮服务;中餐厅;中餐厅,鸡肉,113.308163,23.126407
B0FFL9616F,周黑鸭(广州动物园地铁站店),周黑鸭,non_chicken,,越秀区,新烈中路120号广州地铁5号线动物园站DWY-5-6S,050000,餐饮服务;餐饮相关场所;餐饮相关,虎皮凤爪,113.302101,23.13741
B0FFLMPCKE,聚南洋椰香鸡饭(天河店),聚南洋椰香鸡饭,traditional,招牌,天河区,华强路2号富力盈丰大厦F1层,050100,餐饮服务;中餐厅;中餐厅,"鸡肉,白切鸡",113.311118,23.128011
B0KKL5A3M5,甘掌门化州驰名牛杂粉香油鸡饭,甘掌门化州驰名牛杂粉香油鸡饭,traditional,招牌,越秀区,东风东路761号丽丰中心F1层,050100,餐饮服务;中餐厅;中餐厅,牛杂粉,113.304137,23.136831
B0K0673HU8,财记炭炉鸡煲(外商新天地店),财记炭炉鸡煲,other_chicken,招牌,越秀区,外商艺龙酒店西门124铺财记炭炉鸡煲,050100,餐饮服务;中餐厅;中餐厅,"肥牛,鸡汤,鸡煲",113.308819,23.127293
B0L1SHQ686,椰赞海南鸡饭(杨箕店),椰赞海南鸡饭,modern,招牌,越秀区,富力新天地F栋F区104铺(工商银行后面),050100,餐饮服务;中餐厅;中餐厅,海南鸡饭,113.307805,23.1285
B0GUVZVDJ4,大头唛啫鸡煲粤菜专门店,大头唛啫鸡煲粤菜专门店,traditional,招牌,越秀区,289艺术园区西门(杨箕东地铁站C3口步行240米),050100,餐饮服务;中餐厅;中餐厅,"双人餐,原味啫土鸡,啫啫煲",113.308149,23.12638
B0IKTMEODU,塔斯汀中国汉堡(广州市越秀水荫路店),塔斯汀中国汉堡,other_chicken,推荐菜,越秀区,水荫路54号汶金汇大厦二楼,050300,餐饮服务;快餐厅;快餐厅,"鸡肉,中国汉堡,汉堡",113.30649,23.140894
B0HAAU5UZZ,湛江白切鸡(富力盈丰大厦A座店),湛江白切鸡,traditional,招牌,天河区,华强路2号富力盈丰大厦A座F1层,050100,餐饮服务;中餐厅;中餐厅,,113.310909,23.128487
B0L6LS90MR,潮蹄·现卤猪脚饭(动物园店),潮蹄·现卤猪脚饭,non_chicken,,越秀区,环市东路513号(动物园地铁站C口步行170米),050000,餐饮服务;餐饮相关场所;餐饮相关,"招牌猪脚饭,香脆烧鸭腿饭,大肠+猪脚饭,大肠,猪脚饭,工作餐",113.303514,23.137515
B0IGCCE6SJ,中国金奖清心鸡(东兴小区店),中国金奖清心鸡,other_chicken,招牌,越秀区,东兴小区南1门东130米,050000,餐饮服务;餐饮相关场所;餐饮相关,,113.307224,23.124655
B0MBPX254F,走心巷清远烧鸡王(杨箕店),走心巷清远烧鸡王,other_chicken,招牌,越秀区,富力东山新天地F区(杨箕东地铁站C3口步行490米),050100,餐饮服务;中餐厅;中餐厅,烧鸡,113.307237,23.1288
B0JRB56UZD,华辉拉肠(杨箕店),华辉拉肠,non_chicken,,越秀区,新天地街5号127房,050100,餐饮服务;中餐厅;中餐厅,单人餐,113.3079,23.129019
B0FFKUXR80,韩式炸鸡•烤鸡(动物园店),韩式炸鸡•烤鸡,modern,招牌,越秀区,黄花岗街道云鹤南街9号(动物园地铁站B口步行440米),050300,餐饮服务;快餐厅;快餐厅,"韩式炸鸡,烤鸡",113.30045,23.13956
B0H26U11RN,林记湛江鸡(水荫小区店),林记湛江鸡,traditional,招牌,越秀区,水荫直街水荫小区(动物园地铁站C口步行480米),050100,餐饮服务;中餐厅;中餐厅,湛江鸡,113.303568,23.139882
B0LUM400H7,养鱼苏的庄园清泉水活鱼火锅,养鱼苏的庄园清泉水活鱼火锅,traditional,推荐菜,天河区,邦华环球广场(杨箕东地铁站C1口旁),050117,餐饮服务;中餐厅;火锅店,"5+级乳山生蚝,养鱼苏生态甲鱼,清泉水鱼火锅,肌肉农家走地鸡,电饭煲腊味煲仔饭,双人餐",113.31098,23.127294
B0L3OLZ5W3,清远鸡大排档,清远鸡大排档,traditional,招牌,越秀区,广州大道中天河路49号珠实芯寓自编9号,050100,餐饮服务;中餐厅;中餐厅,大排档,113.309539,23.136968
B0LKUZWUET,食谈炸鸡(杨箕店),食谈炸鸡,modern,招牌,越秀区,广州大道中293号外商新天地,050300,餐饮服务;快餐厅;快餐厅,炸鸡,113.308684,23.126948
B0JB31GL46,狮头牌卤味研究所(羊城同创汇店),狮头牌卤味研究所,non_chicken,,越秀区,黄花岗街道东风东路735-737号101自编之3号,050300,餐饮服务;快餐厅;快餐厅,单人餐,113.296039,23.134493
B0KUAS9VWY,蜀渝拌·重庆凉拌菜((水荫路店)),蜀渝拌·重庆凉拌菜),non_chicken,,越秀区,水荫路43号之一首层自编03之03、04、09档,050100,餐饮服务;中餐厅;中餐厅,"双人餐,单人餐",113.305543,23.140523
B0FFFHB1R5,虾饺妹(水荫店),虾饺妹,non_chicken,,越秀区,水荫路2号恒鑫大厦2楼(动物园地铁站C口步行310米),050118|050600,餐饮服务;中餐厅;特色/地方风味餐厅|餐饮服务;茶艺馆;茶艺馆,"四色虾饺妹,避风塘虾饺,面豉酱凤爪,沙爹捞金钱肚,蒸排骨,招牌虾饺,紅米腸,水晶虾饺,泰国榴莲酥,泰式凤爪,港式菠萝包,香煎萝卜糕,招牌虾饺妹,春卷,桂花双皮奶,虾饺,点心,牛肉,荔湾艇仔粥,金蒜香芋蒸排骨,安虾咸水角,鲜虾韭黄春卷,状及第粥,香煎萝卜糕,面豉酱凤爪",113.304023,23.137594
B0LAHUIHF2,粤味烧·劲脆烧肉(烧腊·快餐·东风东店),粤味烧·劲脆烧肉,traditional,推荐菜,越秀区,福今路53-55号首层福今肉菜市场自编C1、C2档,050100,餐饮服务;中餐厅;中餐厅,"劲脆烧肉,豉油鸡,叉烧饭",113.297247,23.133764
B0LKSHID6I,东江海南鸡饭(珠江新城店),东江海南鸡饭,modern,招牌,天河区,华强路与华强直街交叉口西40米,050100,餐饮服务;中餐厅;中餐厅,海南鸡饭,113.311121,23.128508
B0G1NX549I,茂名白切鸡鸭饭,茂名白切鸡鸭饭,traditional,招牌,天河区,广州大道中天河村迎福里19号,050300,餐饮服务;快餐厅;快餐厅,,113.312715,23.133645
B0LKGU2DJ7,湛江果园土鸡,湛江果园土鸡,traditional,招牌,越秀区,中山一路杨箕村泰兴直街50号金迪大厦,050100|060703,餐饮服务;中餐厅;中餐厅|购物服务;综合市场;农副产品市场,,113.305989,23.130401
B0L2HLB1XB,彭德楷黄焖鸡米饭,彭德楷黄焖鸡米饭,modern,招牌,越秀区,水荫路与水荫南路交叉口西南140米,050300,餐饮服务;快餐厅;快餐厅,,113.305589,23.140548
B0MB3OGNUZ,懂小火潮粥鲜火锅,懂小火潮粥鲜火锅,modern,推荐菜,越秀区,福今路17号首层自编4档,050117,餐饮服务;中餐厅;火锅店,"鲜牛嫩肉,魔芋雪绒花,脆皮鸡,手打牛肉丸,脆皮去骨士鸡,自制虾滑,双人餐",113.296918,23.130858
B0FFHLU71S,醉佳食品(共和西路店),醉佳食品,traditional,推荐菜,越秀区,共和西横街1-2栋首层共和西农贸市场A9号,050000,餐饮服务;餐饮相关场所;餐饮相关,"烧鹅,白切鸡,手撕鸡,烧腊",113.29883,23.127887
B0FFK0UCR8,淼鑫猪肚鸡(维多利广场店),淼鑫猪肚鸡,traditional,招牌,天河区,天河路97汉庭广场F2层,050100,餐饮服务;中餐厅;中餐厅,"牛肉,鸡肉",113.313496,23.136851
B0LGRXC3BX,渝八两重庆鸡公煲(广州保利时光汇店),渝八两重庆鸡公煲,modern,招牌,天河区,华穗路406号之=1-4层保利时光汇克洛维广场二层自编B204-C,050300,餐饮服务;快餐厅;快餐厅,"红糖糍粑,锅巴土豆",113.314215,23.129381
B0I14OCMUG,食通宵·鸡煲·大排档(五羊店),食通宵·鸡煲·大排档,other_chicken,招牌,越秀区,寺右一横路南中里2号之一(长城宾馆对面小路进去30米),050100,餐饮服务;中餐厅;中餐厅,"鸡肉,宵夜,牛肉,大排档",113.299217,23.123719
B0HK5AHCLS,塔斯汀中国汉堡(广州市五羊邨地铁站店),塔斯汀中国汉堡,non_chicken,,越秀区,寺石新马路北三街1巷15号之二首层12,050000,餐饮服务;餐饮相关场所;餐饮相关,"汉堡,中国汉堡,薯条",113.308831,23.123087
B0JGH6MY3C,肥蚝鸡煲(五羊新城总店),肥蚝鸡煲,traditional,招牌,越秀区,新马路北三街二巷3号首层106号,050118,餐饮服务;中餐厅;特色/地方风味餐厅,"肥蚝鸡煲双人餐,五指毛桃养生鸡煲,石橄榄养生鸡煲,蒜蓉乳山大生蚝,石橄榄汤底,走地鸡,双人餐",113.308768,23.123456
B0K1JM7J31,御品蟹煲饭(五羊店),御品蟹煲饭,non_chicken,,越秀区,寺右新马路131号103-3铺,050100,餐饮服务;中餐厅;中餐厅,,113.308303,23.123149
B0GKYBE4XC,创膳金牌烧鹅饭店(天河汇商业广场店),创膳金牌烧鹅饭店,traditional,推荐菜,天河区,天河直街160号天河汇商业广场F1层,050100,餐饮服务;中餐厅;中餐厅,"招牌手撕鸡拼烧鸭饭,脆皮烧鸭拼白切鸡饭,脆皮烧鸭饭,单人餐",113.311869,23.141324
B0KDUCG2ZK,创膳金牌烧鹅(保利克洛维店),创膳金牌烧鹅,traditional,推荐菜,天河区,华穗路406号之二1-4层(部位二层自编B204b),050000,餐饮服务;餐饮相关场所;餐饮相关,"脆皮烧鸭饭,脆皮烧鸭拼白切鸡饭,招牌手撕鸡拼烧鸭饭,单人餐",113.314473,23.129486
B0FFMD4S9E,金牌脆皮烧鸡(天河直街店),金牌脆皮烧鸡,other_chicken,招牌,天河区,广州大道中988号105房自编020商铺,050100,餐饮服务;中餐厅;中餐厅,堂食,113.311414,23.140555
B0M6C1VFJS,华莱士·全鸡汉堡(南方日报店),华莱士·全鸡汉堡,modern,招牌,越秀区,寺右北三街五巷21号首层HB01-1铺,050300,餐饮服务;快餐厅;快餐厅,"双人餐,汉堡,下午茶,单人餐,宵夜,炸鸡",113.309107,23.124486
B0J3ZCZ0MB,头牌牛肉火锅打冷店(广州总店),头牌牛肉火锅打冷店,non_chicken,,天河区,华明路4号103房,050117,餐饮服务;中餐厅;火锅店,牛肉,113.311152,23.124944
B0FFJM9Y2X,狮头牌卤味研究所(保利克洛维店),狮头牌卤味研究所,non_chicken,,天河区,华穗路406号之二1-4层(部位一层自编101a铺),050103|141300,餐饮服务;中餐厅;广东菜(粤菜)|科教文化服务;科研机构;科研机构,单人餐,113.314592,23.129712
B0LDNGX800,煲师傅牛蛙鸡爪煲饭,煲师傅牛蛙鸡爪煲饭,other_chicken,招牌,天河区,天河直街与亿泉街交叉口西60米,050100|050300,餐饮服务;中餐厅;中餐厅|餐饮服务;快餐厅;快餐厅,,113.311428,23.140837
B0FFJN9LQH,华辉拉肠(丽晶店),华辉拉肠,non_chicken,,天河区,金穗路28号丽晶都汇F1层,050300,餐饮服务;快餐厅;快餐厅,"肠粉,单人餐",113.312809,23.126299
B0FFHEQ1QV,窑鸡王(杨箕店),窑鸡王,other_chicken,招牌,天河区,黄埔大道西47号103铺,050000,餐饮服务;餐饮相关场所;餐饮相关,双人餐,113.314242,23.130862
B0IRMLN3OF,公子周·衢味鲜辣坊(珠江新城店),公子周·衢味鲜辣坊,non_chicken,,天河区,华明路华普广场东塔107铺(杨箕东地铁站B口步行290米),050100,餐饮服务;中餐厅;中餐厅,"衢州鸭头,黄花菜咸肉,芭乐酒酿冰粉,辣的跳,芋头菇黄金鲫,青番茄炒腊肉,土豆泥小龙虾,鲜蟹捞粉,上汤手打鲜肉丸,鲜辣腰花,高山小黄牛,衢州鸭掌,鸭头,小龙虾,拌饭,牛肉",113.311653,23.125389
B0LKFDT536,洪记湛江白切鸡,洪记湛江白切鸡,traditional,招牌,天河区,金穗路52号星汇园(杨箕东地铁站C1口步行320米),050100,餐饮服务;中餐厅;中餐厅,,113.313375,23.12579
B0M67ZXGHT,山沟沟拇指花卷鸡,山沟沟拇指花卷鸡,other_chicken,招牌,越秀区,寺右二马路与寺右一马路交叉口南100米,050100,餐饮服务;中餐厅;中餐厅,花卷鸡,113.304547,23.123554
B0FFLHODWF,麦当劳(广州麦当劳杨箕分店),麦当劳,other_chicken,推荐菜,越秀区,中山一路杨箕泰兴直街62号首层,050302,餐饮服务;快餐厅;麦当劳,"人气美味尽享套餐,原味板烧鸡腿麦满分组合,板烧美味三件套,家有金桶（脆鸡版）,麦辣美味三件套,麦当劳超值嗨餐,（2-3人餐）,巨无霸汉堡,安格斯系列,麦辣鸡腿堡,大脆鸡扒麦满分组合,家有金桶（汉堡版）,可乐鸡翅,汉堡,双人餐",113.307041,23.131334
B00140B5VJ,麦当劳(宝山大厦分店餐厅),麦当劳,other_chicken,推荐菜,越秀区,环市东路507-509号首层及二层,050302,餐饮服务;快餐厅;麦当劳,"家有金桶（脆鸡版）,麦辣美味三件套,麦当劳超值嗨餐,（2-3人餐）,大脆鸡扒麦满分组合,可乐鸡翅,人气美味尽享套餐,板烧美味三件套,麦辣鸡腿堡,安格斯系列,巨无霸汉堡,原味板烧鸡腿麦满分组合,家有金桶（汉堡版）,双人餐,薯条,汉堡",113.303219,23.137435
B0FFGYMEYT,赛百味(东景店),赛百味,modern,推荐菜,越秀区,东风东路787号的丽丰大厦(别名丽丰中心)东景街9号03号铺位之自编111号铺,050300,餐饮服务;快餐厅;快餐厅,"金枪鱼三明治,西式火腿三明治,黑胡椒厚切牛排三明治,日式照烧鸡三明治,鲍鱼大虾,火鸡胸百味卷,双人餐",113.304092,23.136702
B0K30UTPRG,麦当劳(外商新天地店),麦当劳,non_chicken,,越秀区,广州大道中293号外商新天地F1层,050302,餐饮服务;快餐厅;麦当劳,双人餐,113.309193,23.12715
B0FFH9K081,甘思咪哚·云南菜 (289店),甘思咪哚·云南菜,other_chicken,推荐菜,越秀区,广州大道289号(外商大酒店隔壁),050114,餐饮服务;中餐厅;云贵菜,"玫瑰酸奶,景颇鬼鸡,节节高升,铜锅黄牛肉,大理酸木瓜煮鲈鱼,单人餐,米线,牛肉,鸡肉",113.308621,23.126671
B0L0YX7SSG,麦当劳(邦华环球广场店),麦当劳,non_chicken,,天河区,金穗路1号邦华环球广场F1层,050000,餐饮服务;餐饮相关场所;餐饮相关,双人餐,113.311229,23.127415
B00141OJXX,赛百味(华强路店),赛百味,non_chicken,,天河区,华强路2号119铺(杨箕东地铁站A口步行230米),050300,餐饮服务;快餐厅;快餐厅,"美式咖啡,培根b,薯片一包,百味俱乐部三明治,双层芝士,拿铁咖啡,香烤牛排沙,蔬菜沙拉套餐,起司蛋糕,柠檬茶套餐,香酪汉堡,香烤牛肉套餐,双人餐,三明治",113.311433,23.128469
B00141JI5L,麦当劳(广州金穗路餐厅),麦当劳,other_chicken,推荐菜,天河区,珠江新城金穗路28号华忆丽晶广场102之一商铺,050302,餐饮服务;快餐厅;麦当劳,"人气美味尽享套餐,麦辣美味三件套,原味板烧鸡腿麦满分组合,麦当劳超值嗨餐,（2-3人餐）,大脆鸡扒麦满分组合,板烧美味三件套,可乐鸡翅,家有金桶（脆鸡版）,麦辣鸡腿堡,安格斯系列,巨无霸汉堡,家有金桶（汉堡版）,双人餐,汉堡,薯条",113.312893,23.12599
B0L17XAIND,煲仔正·老广州煲仔饭(越秀水荫南路店),煲仔正·老广州煲仔饭,non_chicken,,越秀区,水荫路66号首层西座铺自编号06之一铺,050100,餐饮服务;中餐厅;中餐厅,"炖汤,煲仔,煲仔饭",113.307051,23.141379
B0FFGFTI91,都城快餐(粤海大厦店),都城快餐,non_chicken,,越秀区,环市东路472号粤海大厦F1层,050100,餐饮服务;中餐厅;中餐厅,牛肉,113.298736,23.136975
B00140TDJP,盛品鲜东莞烧鹅濑粉(杨箕店),盛品鲜东莞烧鹅濑粉,traditional,推荐菜,越秀区,中山一路泰兴直街50号金迪大厦首层02铺,050300,餐饮服务;快餐厅;快餐厅,"白切鸡,米粉,宵夜,叉烧,烧鹅,明火叉烧濑粉",113.306832,23.130661
B0IKRCPKY8,乐凯撒披萨( 杨箕德馨新天地店 ),乐凯撒披萨,modern,推荐菜,越秀区,"杨箕大街43号108-1,108-2",050300,餐饮服务;快餐厅;快餐厅,"意面,蛋挞,榴莲披萨,烤鸡",113.307759,23.129321
B0FFI71FDG,阿强家酸菜鱼(杨箕店),阿强家酸菜鱼,modern,推荐菜,越秀区,梅花村街道杨箕大街富力东山新天地5号213,050102,餐饮服务;中餐厅;四川菜(川菜),"酸菜鱼,鸡肉,酸菜鱼,毛血旺,口水鸡,原创酸菜鲈鱼,夫妻肺片",113.307166,23.12894
B0FFHP6POV,姐婆(东风东路店),姐婆,traditional,推荐菜,越秀区,东风东路761号丽丰中心2层203,050100,餐饮服务;中餐厅;中餐厅,"鸡肉,料理,米粉,豆腐,客家东江盐焗鸡",113.303986,23.135279
B0J06ZASSQ,蒙自源(广州越秀东风广场店),蒙自源,non_chicken,,越秀区,东景街9号103房自编112号(蒙自源米线越秀东风广场店),050118,餐饮服务;中餐厅;特色/地方风味餐厅,下午茶,113.304834,23.135666
B0FFJTX0ET,湘舍壹号(珠控店),湘舍壹号,other_chicken,推荐菜,天河区,华强路1号珠控商务大厦301/302A,050108|050118,餐饮服务;中餐厅;湖南菜(湘菜)|餐饮服务;中餐厅;特色/地方风味餐厅,"鸿运当头,一品全家福,韵味鸡杂,堂蒸黑虎虾球,砂锅扁豆丝,湖南花石香干,小炒黄牛肉,捞汁雪豆,农家土猪肉,石斛人参煲乳鸽,干锅肥肠,清炖湘舍甲鱼,青椒紫苏煮水库鱼,招牌梅菜土猪肉,湘舍一品鸡,红煨湘舍甲鱼,鲜腐竹焖荷包蛋,豆豉辣椒蒸大白刁,浏阳白沙油豆腐,荷香雪花牛肋骨,沙拉冰草,青笋炖腊猪脚,擂辣椒皮蛋,红煨甲鱼裙边,双人餐,辣椒炒肉,鸡肉,鱼头,牛肉,甲鱼,肥肠,擂辣椒皮蛋,辣椒炒肉,阳雀湖辣椒炒土猪肉,小炒黄牛肉",113.311176,23.129455
B0L3ACVF5U,及第粉(杨箕店),及第粉,other_chicken,推荐菜,越秀区,杨箕大街45号首层105,050100,餐饮服务;中餐厅;中餐厅,"元气鸡汤粉,招牌捞手工沙河粉,及第/瘦肉汤粉,及第/瘦肉汤,鸡汤粉",113.30815,23.129384
B0L2RZMBUS,ALMARAH阿尔马拉阿拉伯餐厅,ALMARAH阿尔马拉阿拉伯餐厅,non_chicken,,越秀区,广州大道中293号外商新天地F3层,050121,餐饮服务;中餐厅;清真菜馆,下午茶,113.309037,23.127244
B0HKDAWF8Y,民记煲仔饭(体育西二店),民记煲仔饭,other_chicken,推荐菜,天河区,广利路80号(体育西路地铁站G口步行230米),050100,餐饮服务;中餐厅;中餐厅,"排骨,煲仔饭,牛肉,鸡肉,冬菇滑鸡荷叶饭,煲仔饭",113.314185,23.132703
B0FFGSQQVE,榕意·川味之美(289艺术园店),榕意·川味之美,modern,推荐菜,越秀区,广州大道中289号印报楼一楼112A,050102,餐饮服务;中餐厅;四川菜(川菜),"酸菜鱼,灵魂猪油炒饭,蓝莓山药,精致川味凉面,话梅小番茄,馋嘴蛙,榕意金丝虾,虾蛙的香辣诱惑,手撕包菜,口水鸡,四川凉面,椒麻鸡,椒香馋嘴蛙,羊排,夫妻肺片,五花肉,凉面,牛肉,鸡肉,炒饭,榕意酸菜鱼,口水鸡",113.308969,23.126558
B0FFGH97P9,尊宝比萨(杨箕店),尊宝比萨,modern,推荐菜,越秀区,中山一路28号首层之三商铺,050300,餐饮服务;快餐厅;快餐厅,"装“苏丹王d24榴莲披萨,骨肉相连,蒲烧鳗鱼披萨,和风照烧鸡肉披萨,意大利肉酱意面,海鲜披萨,黑椒牛柳焗意面,浓情鸡翅,秘制鸡中翼,核桃仁烤鸡肉披萨,劲爆鸡米花,韩国烤肉比萨套餐,鸡米花,实惠三人套餐,风情向鸡翅,意面,堂食,比萨",113.304823,23.131698
B00141IAG1,银记肠粉店(中山一店),银记肠粉店,traditional,推荐菜,越秀区,中山一路51号前座首层103,050100,餐饮服务;中餐厅;中餐厅,"素拉肠,黑松露鲜虾肠,金牌牛肉拉肠,及第粥及艇仔粥,招牌滑鸡粥,叉烧拉肠,豉油皇牛肉拉肠,香脆油条,鲜爽骨腩粥,白斋同皮蛋瘦肉粥,状元及第粥,鸳鸯拉肠,爽脆猪肝粥,加蛋肠,手撕鸡饭,大排档,肠粉,油条,皮蛋瘦肉粥",113.304685,23.131086
B00140RVLB,张记旺角食街(东山店),张记旺角食街,other_chicken,推荐菜,越秀区,水荫路7号(动物园地铁站C口步行130米),050100,餐饮服务;中餐厅;中餐厅,"红焖羊肉煲,烤羊腿,一桶鸡,招牌清补羊肉汤,鹅肠,白切东山羊,捞起羊肉,烧鹅,印度薄饼,葱香蒸鲈鱼,铁板珍珠耗,碳烧生蚝,盐焗虾,烤羊排,乳鸽,羊肉,生蚝,农家小炒肉,大排档",113.302735,23.137893
B0LKLR8KFO,遇见小面(杨箕村店),遇见小面,modern,推荐菜,越秀区,梅花村街道中山一路17号之二部位B1铺,050100,餐饮服务;中餐厅;中餐厅,"葱酥骨汤抄手,白玉厚椰乳,秘制脆皮半只鸡,销魂擂椒卤肉面,酥掉渣芝麻烧饼(1个),金碗酸辣粉,脆皮半只鸡阳光番茄汤面,阳光番茄牛肉面,脆皮半只鸡麻辣小面,内蒙古羔羊羊肉串(3串),酥脆鸡排(1块),川味酸菜牛肉面,酸菜卤肉饭,酸菜卤肉面,老麻抄手,爆浆豆腐串(2串),琥珀冰粉,酸辣粉",113.307285,23.131655
B0LGLCL2BY,鼎记猪脚饭,鼎记猪脚饭,non_chicken,,越秀区,泰兴直街43号首层103房,050100,餐饮服务;中餐厅;中餐厅,"猪脚饭,双人餐",113.307174,23.129955
B0LDR1JQTD,阿赛小面(杨箕店),阿赛小面,non_chicken,,越秀区,东风东路水均大街51号首层,050300,餐饮服务;快餐厅;快餐厅,"小面,双人餐",113.301211,23.133364
B0KKSAK9RT,燃嬢嬢烤脑花·宜宾面(五羊店),燃嬢嬢烤脑花·宜宾面,modern,推荐菜,越秀区,寺右新马路131号首层103房103-13,050000,餐饮服务;餐饮相关场所;餐饮相关,"酸豆角肉沫抄手,浇汁儿爽口生菜,加干香辣子鸡,糍耙冰粉,荤然面,爆辣牛蛙面,凉水井凉糕,老麻红油抄手,浇汁儿娃娃菜,三鲜汤,冰豆花,红糖糍粑冰粉,干香辣子鸡面,火爆肥肠,泡椒蹄花抄手,口蘑汤,单人餐",113.308602,23.12284
B0LDMZDYE5,粤稻香煲仔饭,粤稻香煲仔饭,traditional,推荐菜,越秀区,共和大街共和村(杨箕地铁站F口步行250米),050300,餐饮服务;快餐厅;快餐厅,"美味鲜牛肉煲仔饭,香菇土鸡煲仔饭,窝蛋,招牌排骨煲仔饭,单人餐",113.301793,23.127273
B0L0RH546G,遇见小面(保利克洛维店),遇见小面,modern,推荐菜,天河区,保利克洛维3期首层(时光汇正门喷泉右手边),050100,餐饮服务;中餐厅;中餐厅,"葱酥骨汤抄手,白玉厚椰乳,秘制脆皮半只鸡,销魂擂椒卤肉面,酥掉渣芝麻烧饼(1个),金碗酸辣粉,脆皮半只鸡阳光番茄汤面,阳光番茄牛肉面,脆皮半只鸡麻辣小面,内蒙古羔羊羊肉串(3串),酥脆鸡排(1块),川味酸菜牛肉面,酸菜卤肉饭,酸菜卤肉面,老麻抄手,爆浆豆腐串(2串),琥珀冰粉,酸辣粉",113.31383,23.129886
B0KA6NGDPS,黔城市井铁签烤肉,黔城市井铁签烤肉,modern,推荐菜,天河区,天河路188号-4铺(体育西路地铁站E口步行350米),050118,餐饮服务;中餐厅;特色/地方风味餐厅,"爆炒鸡血,碳烤小鸡脚,特色烤鸡,包浆豆腐(小恋爱豆腐果),芥末生牛肉,爆炒牛蛙,碳烤小龙虾,黄瓜牛奶冰浆,特色洋芋粑,特色黑糯米冰浆,爆炒土豆,特色小豆腐,招牌西瓜白糯米冰浆,爆炒毛肚,鱼香肉丝盖饭,宫爆板筋盖饭,爆炒米豆腐,屯堡烤小肠,老贵阳铁签烤肉,包浆豆腐,烤鸡",113.314562,23.136108
B0K6MMCC47,尊宝比萨(农林下路店),尊宝比萨,modern,推荐菜,越秀区,三育路44号3号楼(一楼7号铺),050000,餐饮服务;餐饮相关场所;餐饮相关,"意大利肉酱面,金沙咸蛋黄,经典苏丹王榴莲比萨,超级豪华比萨,金沙咸蛋黄培根比萨,精选比萨2件奥尔良+榴莲,经典苏丹王榴莲,奥尔良烤鸡,意面,比萨,蛋挞",113.295046,23.132034
B0JGO503GF,融柳大铁牛螺蛳粉(五羊邨店),融柳大铁牛螺蛳粉,non_chicken,,越秀区,寺右新马路130号首层103房,050300,餐饮服务;快餐厅;快餐厅,"单人餐,双人餐",113.308297,23.123166
B0JA9YE922,蒙自源(广州越秀东环大厦店),蒙自源,non_chicken,,越秀区,环市东路474号东环大厦一楼102铺,050000,餐饮服务;餐饮相关场所;餐饮相关,"下午茶,牛肉,面食",113.29965,23.136659
B0J6PZULJQ,霸碗盖码饭(广州保利时光汇店),霸碗盖码饭,non_chicken,,天河区,冼村街道华穗路406号之二1-4层克洛维二期2205,050300,餐饮服务;快餐厅;快餐厅,"单人餐,盖码饭",113.314218,23.129377
B0J0UD5L1T,阿强家川菜·28年川菜老字号(五羊万国店),阿强家川菜·28年川菜老字号,modern,推荐菜,越秀区,寺右新马路87号-99号第2层202商铺,050102,餐饮服务;中餐厅;四川菜(川菜),"水煮牛肉,酸菜鱼,鸡肉,鸭血,口水鸡,原创酸菜鲈鱼,夫妻肺片,酸菜鱼,毛肚,毛血旺,小酥肉,豆腐",113.306515,23.122688
B0IGCCCKXM,嗨椒小面(五羊北小区店),嗨椒小面,modern,推荐菜,越秀区,五羊北小区3号门旁(五羊邨地铁站C口步行120米),050300,餐饮服务;快餐厅;快餐厅,"炸鸡扒,干锅土豆,酸辣粉,杂酱面,番茄牛肉面,番茄炒蛋面,牛肉面,骨汤抄手,碗杂面,筒骨米线,鸡汤抄手,红糖糍粑,老麻抄手,鸡汤米线,单人餐,双人餐",113.309183,23.123467
B0I2UZTTU2,点蹄擂椒猪脚饭(广东地质山水酒店店),点蹄擂椒猪脚饭,non_chicken,,越秀区,环市东路辅路与东环路交叉口东南40米,050300,餐饮服务;快餐厅;快餐厅,,113.300084,23.13695
B0I13DRJMS,麦当劳(富力盈力大厦店),麦当劳,other_chicken,推荐菜,天河区,华强路3号富力盈力大厦南塔103号,050302,餐饮服务;快餐厅;麦当劳,"鸡块,堂食,麦香鸡",113.31206,23.128953
B0I0JH7R3I,厨当家北方菜(保信大厦店),厨当家北方菜,modern,推荐菜,越秀区,寺右新马路75号(保信大厦)103铺麦稻汇旁,050100,餐饮服务;中餐厅;中餐厅,"羊肉串,西北菜,锅包肉,大盘鸡,羊肉泡馍,红柳霸王羊肉串,韭菜盒子,手抓羊肉,红柳烤肉,锅包肉",113.304783,23.122778
B0HUXSIC38,阿强家川菜(珠江新城店),阿强家川菜,modern,推荐菜,天河区,华穗路263号双城国际大厦一楼103号铺,050102,餐饮服务;中餐厅;四川菜(川菜),"单人餐,酸菜鱼,爆炒腰花,浣花溪畔口水鸡,酸菜鱼,原创酸菜鲈鱼,自贡火爆腰花",113.312851,23.122866
B0H2XAGQ00,永和大王(华强路二店),永和大王,other_chicken,推荐菜,天河区,广州市天河区华强路9号二楼永和大王,050300,餐饮服务;快餐厅;快餐厅,"双人餐,鸡肉",113.314262,23.128778
B0H0C925YB,达美乐比萨(华穗路店),达美乐比萨,other_chicken,推荐菜,天河区,华穗路406号之二1-4层,050300,餐饮服务;快餐厅;快餐厅,"经典大阪烧风味海陆比萨,经典意式肉酱比萨,金枪鱼海鲜荟萃比萨,黑松露风味菌菇鸡肉比萨,苏丹王榴莲多多给荔比萨,嫩滋肋眼牛排,芝士焗烤嫩汁三文鱼,香甜双虾菠萝比萨,英式惠灵顿菲力牛排比萨,马德里风情牛腩大虾比萨,托斯卡纳风情芝浓三文鱼比萨,冬日暖饮,火山饼底,金尊猫山王榴莲多多比萨,照烧风味牛肉土豆比萨,意大利雪球芝士多肉多芝比萨,新加坡砂煲风味腊肠鸡肉比萨,呼伦贝尔羔羊排,西西里风情尊牛多多笋鲜比萨,可可火山饼底,苏丹王榴莲红毛丹比萨,美式豪情牛肉培根菠萝比萨,可可熔岩芝士流心卷边,比萨,双人餐",113.314019,23.129438
B0G1BG99RB,尊宝比萨(邦华店),尊宝比萨,modern,推荐菜,天河区,金穗路1号110铺(杨箕东地铁站C1口步行140米),050300,餐饮服务;快餐厅;快餐厅,"超级豪华比萨,金沙咸蛋黄培根比萨,精选比萨2件奥尔良+榴莲,意大利肉酱面,经典苏丹王榴莲比萨,经典苏丹王榴莲,奥尔良烤鸡,金沙咸蛋黄,8英寸经典苏丹王榴莲比萨,比萨,意面",113.311075,23.127586
B0FFJA2CQD,贵妃茶餐厅(环市东路店),贵妃茶餐厅,traditional,推荐菜,越秀区,环市东路476金东环大厦F1层,050100,餐饮服务;中餐厅;中餐厅,白切鸡,113.300145,23.136892
B0FFGYNCEH,遇见小面(289创意店),遇见小面,modern,推荐菜,越秀区,广州大道中289艺术园1层115号(近广州珠江新城琥珀东方酒店),050100,餐饮服务;中餐厅;中餐厅,"酥掉渣芝麻烧饼(1个),金碗酸辣粉,脆皮半只鸡阳光番茄汤面,酸菜卤肉面,老麻抄手,爆浆豆腐串(2串),琥珀冰粉,阳光番茄牛肉面,脆皮半只鸡麻辣小面,内蒙古羔羊羊肉串(3串),酥脆鸡排(1块),川味酸菜牛肉面,酸菜卤肉饭,葱酥骨汤抄手,白玉厚椰乳,秘制脆皮半只鸡,销魂擂椒卤肉面,面食,酸辣粉",113.309259,23.124854
B0FFGMALCB,兴悦酒家(时光汇购物中心店),兴悦酒家,modern,推荐菜,天河区,华穗路406号保利克洛维广场2期4层,050103,餐饮服务;中餐厅;广东菜(粤菜),"片皮鸭,叉烧包,西施泡饭,烧得很差的片皮鸭,鸡煲翅,芝士焗龙虾伊面,野菊炖螺头,鲍汁凤爪,金沙红米肠,脆皮鸡,鲍鱼汁鸡爪,生磨杏仁茶,蠔皇叉烧包,寿包,白糖糕,油条,芝士,虾仁,炒面,叉烧,肠粉,马拉糕,三色流沙包,鲍汁荷叶饭,千里香葱油饼,粉果,蚝皇叉烧包,咸煎饼,五花肉,点心,鸡肉",113.314098,23.129681
B0FFFHJEQ6,四川豆花(五羊店),四川豆花,other_chicken,推荐菜,越秀区,"寺右北三街二巷1号地03,3,5号1层",050102,餐饮服务;中餐厅;四川菜(川菜),"酸菜鱼,重庆棒棒鸡,麻椒雞,河水豆花,脑花,自创烧椒肥牛,香辣虾,兔头,糍粑,石锅酥肉,重庆烤鱼,麻辣豆腐花,夫妻肺片,自创石锅黄骨鱼,麻辣青蛙,豆花,鸡肉,双人餐,蜀汉毛血旺,酸菜鱼,夫妻肺片",113.308865,23.123537
B00141L0QD,湘之园(天河汇商业广场店),湘之园,traditional,推荐菜,天河区,南街道天河直街160号天河汇运动商城二楼,050108,餐饮服务;中餐厅;湖南菜(湘菜),"葱油饼,酸菜鱼,手撕鸡,小炒黄牛肉",113.31204,23.141981
B00141JP6H,尊宝比萨(时代广场店),尊宝比萨,modern,推荐菜,天河区,天河直街160号天河汇1层,050300|050400,餐饮服务;快餐厅;快餐厅|餐饮服务;休闲餐饮场所;休闲餐饮场所,"一超级豪华披萨,苏丹王024榴莲披萨,核桃鸡肉披萨,新奥尔良烤翅,海鲜披萨,新奥尔良烤鸡披萨,蒜香烤鸡翅,骨肉相连,韩国烤肉披萨,黑椒牛柳意粉,海鲜茄汁焗意面,核桃仁烤鸡披萨,蒲烧鳗鱼披萨,核桃仁烤鸡piz,经典肉酱意粉,宵夜,比萨,披萨,意面,堂食",113.311894,23.142344
B00140U1MA,大食馆湘村土菜(寺右新马路店),大食馆湘村土菜,non_chicken,,越秀区,寺右新马路101号星辰天街1层,050108,餐饮服务;中餐厅;湖南菜(湘菜),土菜,113.306955,23.1228
B00140OUWB,东江美食,东江美食,traditional,推荐菜,越秀区,寺右北三街一巷15号之3首,050103,餐饮服务;中餐厅;广东菜(粤菜),"椒盐鲜鱿鱼,铁板黑椒牛肉,鱼香茄子煲,捞起鲈鱼,泰汁鲈鱼,五柳炸蛋,大排档,牛肉,东江盐焗鸡,鱿鱼,鸡肉",113.308862,23.123292
B00140B08C,皇鹏烧鹅仔(共和大街店),皇鹏烧鹅仔,traditional,推荐菜,越秀区,共和大街24栋50号105,050100,餐饮服务;中餐厅;中餐厅,"卤水蛋,香妃白切鸡饭,盐焗鸡脚,金牌烧鹅肶加蜜汁叉烧,蜜汁烧鸡翼饭,盐焗鸡翼饭,金牌烧鹅饭加老火汤,手撕鸡饭,金牌烧鹅加招牌手撕鸡,招牌手撕鸡饭,咸鸡肶饭,油鸡肶饭,金牌烧鹅肶,盐焗鸡肾饭,卤水猪肠饭,麻辣鸡肾饭,招牌手撕鸡饭十叉烧十老火汤,酸甜咕噜饭,江西走地鸡饭,豉油皇鸡翼,烧腊,鸡肉,烧鹅",113.30151,23.127178
B0GUUR18S5,物只卤鹅(水荫路店),物只卤鹅,non_chicken,,越秀区,水荫路68号之八,050300,餐饮服务;快餐厅;快餐厅,,113.306867,23.141873
B0FFI09HQ9,遇见小面(天河路店)(暂停营业),遇见小面,modern,推荐菜,天河区,天河路1层97号B02铺(兴业银行大厦与工商银行之间),050100,餐饮服务;中餐厅;中餐厅,"酸菜卤肉面,老麻抄手,爆浆豆腐串(2串),琥珀冰粉,酥掉渣芝麻烧饼(1个),金碗酸辣粉,脆皮半只鸡阳光番茄汤面,阳光番茄牛肉面,脆皮半只鸡麻辣小面,内蒙古羔羊羊肉串(3串),酥脆鸡排(1块),川味酸菜牛肉面,酸菜卤肉饭,葱酥骨汤抄手,白玉厚椰乳,秘制脆皮半只鸡,销魂擂椒卤肉面,皮蛋瘦肉粥,鸡肉,酸辣粉",113.31358,23.136898
B0K32SB6VW,何小东面馆(广州首店),何小东面馆,modern,推荐菜,天河区,体育西横街142号104,050100,餐饮服务;中餐厅;中餐厅,"手擀面,拌面,排骨,面食,大盘鸡",113.319287,23.131098
B0KBGCBSHA,聚汇坊椰子鸡·猪肚鸡(花城汇店),聚汇坊椰子鸡·猪肚鸡,traditional,招牌,天河区,花城大道89号花城汇中区商铺144铺,050117,餐饮服务;中餐厅;火锅店,鸡肉,113.319594,23.123631
B0KKFCNM6K,蒸山野阳山鸡·脆肉鲩·冬瓜盅火锅(体育西店),蒸山野阳山鸡·脆肉鲩·冬瓜盅火锅,traditional,招牌,天河区,"体育西横街46号101铺(体育西H出口100米,福啫爆隔壁)",050117,餐饮服务;中餐厅;火锅店,"海底椰冬瓜盅,脆肉鲩,鸡肉",113.317965,23.13157
B0L3A1WKLZ,欢欢串场·鸡汤麻辣串,欢欢串场·鸡汤麻辣串,other_chicken,招牌,天河区,体育西横街211号(冼村地铁站B口步行380米),050100,餐饮服务;中餐厅;中餐厅,鸡汤,113.321761,23.131248
B0IUACZR2Q,胖可可鲜烤黄油鸡(体育西店),胖可可鲜烤黄油鸡,modern,招牌,天河区,体育西横街109号,050000,餐饮服务;餐饮相关场所;餐饮相关,"烤肥肥香牛肉串,胖可疯狂炒米粉,胖可脆皮紫苏鸡腿肉串,手工奶香爆浆牛油串,烤糯糯鸡脚串,干烹酥米茶香鸡,三个溏心蛋拌饭,经典果木脆皮鸡腿肉串x10,奶香芝士玉米,（南澳岛）精品蒜蓉小生蚝,咸香掌中宝,黑猪大肉块烤肠,芥末泰汁虎皮青瓜,玫瑰盐烤南美白虾,炙烤鸡心大串,鲜烤供港黄油鸡,辣酱油拌蛋白豆腐,爆浆奶酪鱼条,烤蔬菜大咖,招牌蜜汁鸡腿肉串,鸡肉,双人餐,烤串",113.319027,23.131724
B0LDVS5CYH,金戈戈香港豉油鸡联名店(广州花城汇北区店),金戈戈香港豉油鸡联名店,traditional,招牌,天河区,冼村街道黄埔大道西74号花城汇北区西翼负一楼B区24B,050000,餐饮服务;餐饮相关场所;餐饮相关,,113.318629,23.129354
B0H0JSVU94,木棉·醉心粤味(高德置地店),木棉·醉心粤味,traditional,推荐菜,天河区,花城大道85号珠江新城高德置地冬广场四楼,050103,餐饮服务;中餐厅;广东菜(粤菜),"酱油烧牛小排,香葱烧鲍鱼,紫菜南瓜,啫啫烤木瓜,海盐蒜金雕鱼,梅子酒慢煮牛腩,厚切岩烧牛舌,禾秆草烧乳鸽,澳洲龙虾仔,一颗柠檬,初恋咕噜肉,松茸海胆烩饭,瑶柱百合炖鲜淮山汤,猪肝啫枸杞,龙井烟熏太爷鸡,双人餐,鸡肉,牛肉,初恋咕噜肉,梅菜叉烧包,猪肝啫枸杞,啫啫煲",113.321555,23.123187
B0KU5HEKBO,沙味9号·新疆沙湾大盘鸡(体育西店),沙味9号·新疆沙湾大盘鸡,modern,招牌,天河区,体育西横街78号(黄埔大道地铁站A口步行270米),050000,餐饮服务;餐饮相关场所;餐饮相关,"大盘鸡,鸡肉,新疆烤包子,羊肉串,新疆碎肉手抓饭,大盘鸡",113.31865,23.131319
B0K1319FNE,宝宝鸡·广东鸡餐厅,宝宝鸡·广东鸡餐厅,traditional,招牌,天河区,天盛大厦西南门旁,050000,餐饮服务;餐饮相关场所;餐饮相关,"鸡肉,广式脆皮烧肉,炸葱豉油鸡",113.321987,23.132486
B0GK1X2Z2X,凤园椰珍·椰子鸡火锅(高德置地店),凤园椰珍·椰子鸡火锅,modern,招牌,天河区,花城大道85号高德置地广场·春广场4F层423,050117,餐饮服务;中餐厅;火锅店,"鸡肉,双人餐",113.316741,23.123088
B0FFLJDYL1,椰客·海南椰子鸡(高德置地冬广场店),椰客·海南椰子鸡,modern,招牌,天河区,珠江东路16号高德置地冬广场L2楼202铺,050100,餐饮服务;中餐厅;中餐厅,"豆黄金鲜腐竹,竹笙鲜菌椰子鸡,安格斯肥牛,传统海南粉,手打虾滑,香糯椰子船,一人酸辣椰奶肥牛,木瓜花胶椰子鸡,一人木瓜花胶椰子鸡,肥牛,鸡肉",113.321023,23.122625
B0KAR587VD,叹佬鸡煲(六运小区店),叹佬鸡煲,other_chicken,招牌,天河区,体育西横街85号(体育西路地铁站B口步行310米),050100,餐饮服务;中餐厅;中餐厅,,113.318505,23.131769
B0FFIRB4VK,云海肴云南菜(高德置地店),云海肴云南菜,other_chicken,推荐菜,天河区,花城大道路85、87号四层401,050108|050114,餐饮服务;中餐厅;湖南菜(湘菜)|餐饮服务;中餐厅;云贵菜,"金雀花百合汽锅鸡,汽锅鸡,咕嘟肉沫包浆豆腐,云海肴汽锅鸡,鸡丝凉米线,黑三剁,树番茄百合拌金雀花,云南过桥米线,四喜临门破酥包,傣味菠萝饭,金雀花百合五彩时蔬,双人餐,香茅草烤鱼,香茅草烤罗非鱼,云南过桥米线,玫瑰鲜花饼,米线,鸡肉",113.316825,23.123112
B0IR2R3QI8,塔斯汀中国汉堡(广州市天河黄埔大道店),塔斯汀中国汉堡,modern,推荐菜,天河区,体育东路13号店(塔斯汀中国汉堡店),050300,餐饮服务;快餐厅;快餐厅,"炸鸡,中国汉堡,汉堡",113.322223,23.131261
B001423HGU,岭南土鸡村(天河南步行街店),岭南土鸡村,traditional,招牌,天河区,体育西横街66号(工商银行对面),050100,餐饮服务;中餐厅;中餐厅,"火焰醉鹅,岭南土鸡,卤水拼盘,湿腐竹,猪肚煲鸡,珍珠皮蛋,猪肚鸡,猪肚煲鸡,土鸡,鸡肉",113.318419,23.131477
B0LKP70CS1,潮埕养生脆皮鸡炉·起片鸡煲(体育西横街店),潮埕养生脆皮鸡炉·起片鸡煲,modern,招牌,天河区,天河中心体育西横街21号1店,050000,餐饮服务;餐饮相关场所;餐饮相关,"脆皮鸡,鸡煲",113.317616,23.132052
B0I13PMN5Z,佬椰们海南椰子鸡(天河店),佬椰们海南椰子鸡,modern,招牌,天河区,育蕾小区(体育西路地铁站G口步行490米),050100,餐饮服务;中餐厅;中餐厅,海南椰子鸡,113.318191,23.130451
B0IRH9S7TH,湘遇土菜馆(育蕾小区店),湘遇土菜馆,non_chicken,,天河区,育蕾小区东北门东南60米,050100,餐饮服务;中餐厅;中餐厅,"牛肉,单人餐,双人餐,小炒黄牛肉",113.318619,23.131173
B0IA95PPCL,湛江白切鸡(富力盈通大厦店),湛江白切鸡,traditional,招牌,天河区,华夏路28号富力盈通大厦商场F3层,050100,餐饮服务;中餐厅;中餐厅,,113.316449,23.128384
B0K6Z7YJCK,华莱士·全鸡汉堡(黄埔大道店),华莱士·全鸡汉堡,modern,招牌,天河区,黄埔大道西123号(黄埔大道地铁站A口步行240米),050300,餐饮服务;快餐厅;快餐厅,"单人餐,薯条,下午茶,双人餐,宵夜,汉堡,炸鸡",113.318176,23.130455
B0FFGB0OJ4,幸福驿站小酒馆(天河总店),幸福驿站小酒馆,non_chicken,,天河区,体育西横街育蕾小区三街8号1层(工行对面),050100,餐饮服务;中餐厅;中餐厅,,113.318059,23.131332
B0FFIY7U9Y,醉楼兰(高德店),醉楼兰,modern,推荐菜,天河区,花城大道85号高德置地春广场5楼503,050100,餐饮服务;中餐厅;中餐厅,"鸡肉,羊肉串,大盘鸡,单人餐,羊肉,羊肉烤包子,红柳枝烤肉,大盘鸡,红柳烤肉,双人餐",113.317286,23.123098
B0K3KXMEAU,中国沙县.黄焖鸡,中国沙县.黄焖鸡,modern,招牌,天河区,黄埔大道西231号中国沙县黄焖鸡,050100,餐饮服务;中餐厅;中餐厅,黄焖鸡,113.323255,23.130419
B0G27KCA36,小酒馆·湖南土菜馆,小酒馆·湖南土菜馆,non_chicken,,天河区,体育西横街72号(中国工商银行对面),050100,餐饮服务;中餐厅;中餐厅,"猪手,猪蹄,茄子,小炒黄牛肉,口味虾,口味小龙虾",113.318424,23.13146
B0JKVUIKUP,何蘭正·PHO·越南牛鸡粉(体育东店),何蘭正·PHO·越南牛鸡粉,other_chicken,招牌,天河区,体育东路辅路与体育西横街交叉口西南40米,050200,餐饮服务;外国餐厅;外国餐厅,牛肉,113.322342,23.130766
B0LUOSI0QI,海南鸡饭(体育西店),海南鸡饭,modern,招牌,天河区,体育西路体育西横街115-125、129-139号首层,050100,餐饮服务;中餐厅;中餐厅,海南鸡饭,113.319996,23.131609
B0L0J6ENBH,疆小马新疆美食,疆小马新疆美食,non_chicken,,天河区,冼村街道黄埔大道西74号花城汇北区A114号,050118,餐饮服务;中餐厅;特色/地方风味餐厅,"双人餐,素菜,单人餐",113.319907,23.129177
B0FFM6QMXD,四季佛跳墙(体育西横街店),四季佛跳墙,other_chicken,推荐菜,天河区,体育西横街184号101房,050100,餐饮服务;中餐厅;中餐厅,"佛跳墙,单人餐,双人餐,鲍鱼,鸡肉",113.32105,23.131072
B00140UV92,顺德真味(体育西横路店),顺德真味,non_chicken,,天河区,体育西横街10号之1(体育西路地铁站G口步行190米),050103,餐饮服务;中餐厅;广东菜(粤菜),"双人餐,真味鱼皮",113.316891,23.13176
B0H0JSSFWX,喳喳煲(体育西店),喳喳煲,other_chicken,推荐菜,天河区,体育西横街74号,050100,餐饮服务;中餐厅;中餐厅,"喳喳嫩牛肉,金牌腊味煲仔饭,喳喳掌中宝,桂花酿莲藕,喳喳安格斯肥牛,双人餐,牛肉,鸡肉,黄鳝煲仔饭,糖水,茅根竹蔗水",113.318683,23.131321
B0HRGUB9ET,张记生鲜光鸡档(六运小区店),张记生鲜光鸡档,other_chicken,招牌,天河区,六运一街17号文昌商务楼F1层,050100,餐饮服务;中餐厅;中餐厅,,113.318591,23.132205
B0JBBC3VWB,原.川菜私厨Lounge(体育西横街店),原.川菜私厨Lounge,other_chicken,推荐菜,天河区,体育西横街180号(曾卫军牙科诊所旁),050000,餐饮服务;餐饮相关场所;餐饮相关,"辣炒爆汁雪花牛肉,油浸大连鲜鲍,干烧青椒金沙参,藤椒鸡汁大黄鱼,辣子小青龙,小原自制泡菜,双人餐,鸡肉,麻婆豆腐烩花胶,杨枝甘露,山珍海味毛血旺",113.32098,23.130995
B00141R50R,麦当劳(花城大道第二分店),麦当劳,other_chicken,推荐菜,天河区,花城大道89号花城汇北区B1层1065-2、1065-3号,050302,餐饮服务;快餐厅;麦当劳,"家有金桶（脆鸡版）,麦辣美味三件套,麦当劳超值嗨餐,（2-3人餐）,大脆鸡扒麦满分组合,原味板烧鸡腿麦满分组合,板烧美味三件套,人气美味尽享套餐,麦辣鸡腿堡,安格斯系列,巨无霸汉堡,家有金桶（汉堡版）,可乐鸡翅,下午茶,双人餐,薯条,汉堡",113.319256,23.12928
B0G13BXYEG,麦当劳(富力盈通大厦商场店),麦当劳,other_chicken,推荐菜,天河区,冼村街道华夏路30号富力盈通大厦首层108号商铺,050302,餐饮服务;快餐厅;麦当劳,"家有金桶（汉堡版）,麦当劳超值嗨餐,（2-3人餐）,板烧美味三件套,麦辣美味三件套,原味板烧鸡腿麦满分组合,大脆鸡扒麦满分组合,人气美味尽享套餐,巨无霸汉堡,安格斯系列,麦辣鸡腿堡,可乐鸡翅,家有金桶（脆鸡版）,双人餐,汉堡,薯条",113.316283,23.128618
B00141RH6Q,华辉拉肠(新体育东店),华辉拉肠,other_chicken,推荐菜,天河区,体育东路27号之一首层自编A,050100,餐饮服务;中餐厅;中餐厅,"鸡蛋肠,双皮奶,牛肉粥,及第粥,滑鸡粥,牛肉肠,牛肉拉肠,猪腰拉肠,牛肉拉腸,拉肠,艇仔粥,肠粉,猪肉肠,鱼肉肠,叉烧肠,单人餐,牛肉,皮蛋瘦肉粥",113.322474,23.131863
B0FFJDWN55,麦当劳(安永大厦店),麦当劳,other_chicken,推荐菜,天河区,珠江东路12号、14号、16号高德置地广场冬商场负一层B110A号商铺,050302,餐饮服务;快餐厅;麦当劳,"大脆鸡扒麦满分组合,人气美味尽享套餐,板烧美味三件套,麦辣美味三件套,家有金桶（汉堡版）,麦当劳超值嗨餐,（2-3人餐）,家有金桶（脆鸡版）,原味板烧鸡腿麦满分组合,麦辣鸡腿堡,安格斯系列,巨无霸汉堡,可乐鸡翅,鸡肉,双人餐,汉堡,薯条",113.322029,23.12284
B0HATC1J3Y,赛百味(富力盈通店),赛百味,modern,推荐菜,天河区,冼村街道华夏路30号富力盈通大厦2楼215铺,050300,餐饮服务;快餐厅;快餐厅,"金枪鱼三明治,西式火腿三明治,照烧鸡蛋料双拼三明治三件套,黑胡椒厚切牛排三明治,香溢金枪鱼双拼三明治三件套,黑胡椒厚切牛排三明治三件套,日式照烧鸡三明治,火鸡胸百味卷,鲍鱼大虾,双人餐,三明治",113.316531,23.128684
B0KDYLUR56,云海一线·湛江家宴(珠江新城店),云海一线·湛江家宴,traditional,推荐菜,天河区,华夏路28号富力盈信大厦2楼,050100,餐饮服务;中餐厅;中餐厅,"鸡肉,点心,独湛白切鸡",113.316318,23.128003
B0J3T5J7L3,融苑·二十四节气菜(珠江新城旗舰店),融苑·二十四节气菜,modern,推荐菜,天河区,珠江新城雅居乐中心4楼,050100,餐饮服务;中餐厅;中餐厅,"猪肉,龙虾,口水鸡,小黄鱼,蟹肉",113.316411,23.127231
B0H0K9SR0H,天成川小馆·鲜活川味(侨鑫店),天成川小馆·鲜活川味,modern,推荐菜,天河区,金穗路62号侨鑫国际商场F3层,050102,餐饮服务;中餐厅;四川菜(川菜),"三分钟红糖流心糍粑,生爆盐煎肉,蒜泥白肉（美）,熟油辣子香辣酱,醪糟汤圆,宫保荔枝虾球,18秒雪花牛肉,香辣鲜蛙拼麻虾,姜汁腊肉芥兰苗,天成香辣美蛙,刘师傅秘制海鲜毛血旺,水煮安格斯牛肉,无骨辣子鸡,招牌天成酸菜鱼,酸菜鱼,鸡肉,刘师傅海鲜毛血旺,山城辣子鸡,水煮牛肉,水煮安格斯牛肉,招牌天成酸菜鱼",113.317122,23.125283
B0FFHECYEQ,禄鼎记(侨鑫店),禄鼎记,modern,推荐菜,天河区,金穗路62号之一侨鑫国际金融中心商业裙楼2层6号,050100,餐饮服务;中餐厅;中餐厅,"三味茄子,大海爆炒肥肠,椒然双拼,二师兄辣子鸡,香辣干煸四季豆,酸菜鱼,辣子鸡,发财肥肠辣子鸡,担担面,抄手",113.31733,23.124933
B0FFHE5R5J,禄运茶居·手工点心(体育西店),禄运茶居·手工点心,other_chicken,推荐菜,天河区,六运一街17号文昌商务楼1-3层(六运幼儿园旁近天环广场),050600|050100,餐饮服务;茶艺馆;茶艺馆|餐饮服务;中餐厅;中餐厅,"禄运金牌虾饺皇,金丝鲍汁腐皮卷,荔湾鲜虾艇仔粥,姜汁豆乳牛奶挞,古法米浆芋头糕,滋补美颜红枣糕,金莎脆皮红米肠,西汁黑椒牛仔骨,酱皇豉汁蒸凤爪,脆皮鲜虾炸春卷,蒜香鲜虾菠菜饺,酱皇豉椒蒸凤爪,咸蛋黄肉松葡挞,金蒜好味蒸排骨,虾饺,下午茶,双人餐,酥皮菠萝包,新禄运干炒牛河,钻隆钻旯猪脚姜,糯米鸡,荔湾鲜虾艇仔粥,小宝咸煎饼,马拉糕,禄运金牌虾饺皇,脆皮鲜虾炸春卷,香煎辣味萝卜糕,蛋挞,杨枝甘露,点心",113.318,23.132409
B0FFGPNNPU,八合里潮汕鲜牛肉火锅(广州体育西路店),八合里潮汕鲜牛肉火锅,non_chicken,,天河区,体育西横街68号(岭南土鸡村旁边)-八合里海记牛肉店体育西路店,050117,餐饮服务;中餐厅;火锅店,"吊龙伴,五花趾,手锤牛筋丸,嫩肉,沙茶酱,手锤牛肉丸,牛胸朥,牛朴肉,牛胸油,匙肉,牛百叶,双层肉,腐皮,炸蒜,生河粉,双人餐,牛肉",113.318412,23.1316
B0MBTHCCF2,疆瘾·新疆炒米粉(六运小区店),疆瘾·新疆炒米粉,other_chicken,推荐菜,天河区,南街道体育东路体育西横街192号104房自编之二,050000,餐饮服务;餐饮相关场所;餐饮相关,"牛肉炒宽粉年糕,牛肉炒米粉,鸡肉炒米粉馕块,鸡肉炒米粉,鸡肉年糕炒米粉,鸡肉炒宽粉年糕,双人餐,新疆炒米粉",113.322022,23.131023
B0L2VZ7QH2,鲜牛烧·潮汕炭烤鲜牛肉(体育西店),鲜牛烧·潮汕炭烤鲜牛肉,other_chicken,推荐菜,天河区,体育西路体育西横街8、10号,050100,餐饮服务;中餐厅;中餐厅,"招牌吊龙,炒高明银针粉,合水粉葛糖水,蒸古劳鱼皮饺,中山脆肉鲩鱼,串烧阳山大扇鸡,明虾,台山生蚝,牛舌,三花趾,雪花肥牛,鸡杂鲜虾粥,招牌胸口油,招牌肥牛,沙茶牛肋条,串烧,鲜牛",113.316698,23.131828
B0L24UO4RO,乖妹妹·干盆盆·成都火锅冒菜(体育西店),乖妹妹·干盆盆·成都火锅冒菜,non_chicken,,天河区,体育西横街86号(黄埔大道地铁站A口步行260米),050100,餐饮服务;中餐厅;中餐厅,"爆Q千丝肚,单人餐,双人餐",113.318758,23.131295
B0K6F5D493,幸福驿站小酒馆(天河二店),幸福驿站小酒馆,modern,推荐菜,天河区,体育西路体育西横街149号,050100,餐饮服务;中餐厅;中餐厅,"鸡肉,川味辣子鸡,私房回锅肉",113.32026,23.131444
B0K3FCSYHM,二姐小伙夫·云南小食堂(体育西店),二姐小伙夫·云南小食堂,non_chicken,,天河区,体育西路体育西横街10号之二,050000,餐饮服务;餐饮相关场所;餐饮相关,"拌饭,韭菜,招牌原味小锅米线",113.316891,23.13176
B0J1ZHHMIL,福啫爆·焗海鲜·啫啫煲(体育西店),福啫爆·焗海鲜·啫啫煲,other_chicken,推荐菜,天河区,体育西横街50号(体育西地铁站H出口旁),050100,餐饮服务;中餐厅;中餐厅,"黄油焗皮皮虾,黄油焗或鱼,金沙咸蛋黄鸡翅,焗小黄花鱼,黄油焗罗氏虾,红烧脆皮乳鸽,避风塘脆鱼骨,咸蛋黄啫牛蛙,紫苏啫生肠,盐焗罗氏虾,焗粉糯贝贝瓜,焗招牌鸦片鱼头,京葱啫中山脆肉鲩,咸蛋黄啫大虾,啫啫黄油鸡,黑椒啫牛肋条,杨桃干啫排骨,鲜花椒啫鸽肾,黄油焗金仓,澎湃蟹籽蚝仔烙,豉油皇啫鹅肠,凉瓜啫牛肉,鲍汁啫伊面,年糕焗卜卜贝,牛肉,鸡翅,年糕,鸡肉,大虾,宵夜,啫啫煲,啫啫黄油鸡",113.317924,23.131588
B0FFMB8URN,常来大牌档(高德置地广场·秋店),常来大牌档,traditional,推荐菜,天河区,珠江东路11号高德置地广场·秋F3,050103,餐饮服务;中餐厅;广东菜(粤菜),"大排档,鸡肉,双人餐,煲仔饭,大牌档靓叉烧,大排档捞鱼皮,脆皮盐焗鸡",113.320513,23.12277
B0FFJ2C8WU,华轩里酒店17F天际餐厅(珠江新城店),华轩里酒店17F天际餐厅,other_chicken,推荐菜,天河区,金穗路62号侨鑫国际F17层,050215,餐饮服务;外国餐厅;巴西菜,"鸡皮,意大利面,点心,自助早餐",113.317206,23.124993
B0FFG4RXUW,四姐小龙虾,四姐小龙虾,other_chicken,推荐菜,天河区,体育西横街87号首层自编之三房(建设银行旁边),050119|050117,餐饮服务;中餐厅;海鲜酒楼|餐饮服务;中餐厅;火锅店,"小龙虾,正宗东安鸡,十三香小龙虾,炒螺蛳,爆炒田螺,口味虾",113.318553,23.131754
B0FFFP1ABA,潮埕汕头牛丸火锅(体育西横街2店),潮埕汕头牛丸火锅,non_chicken,,天河区,体育西横街45号,050117,餐饮服务;中餐厅;火锅店,"牛筋丸,沙茶酱,吊龙,手打牛肉丸,牛胸油,杂锦粿条,肥牛,牛心管,五花脚趾肉,炸腐竹,牛骨髓,墨鱼丸,牛筋,牛展,水豆腐,牛肉",113.318164,23.131758
B00141NO2Q,南海渔村(珠江新城店),南海渔村,traditional,推荐菜,天河区,珠江新城珠江东路11-13号高德置地广场秋座4层,050119,餐饮服务;中餐厅;海鲜酒楼,"东北银丝饼,虾饺,招牌脆皮鸡,心太软,芝士焗美国野生波士顿龙虾,陈皮牛肉球,芝士焗龙虾伊面,橄榄响螺汤,灌汤小笼包,泰国榴莲酥,乳鸽,小点心,京烧银鳕鱼,脆皮叉烧餐包,红糖核桃包,北海天然海虾虾饺皇,豉汁蒸排骨,清蒸海河鲜,蜜汁黑豚叉烧,87年创红烧脆皮乳鸽,白切鸡,酱皇蒸凤爪,即烧黑松露烧鹅,顺德姜撞奶,金银蒜粉丝开边蒸元贝,白切贰百鸡皇,黑白麻沙煎堆,早茶,点心,龙虾",113.320276,23.123229
B0MBYZ56L9,一隻燒鵝,一隻燒鵝,non_chicken,,天河区,六运二街43号之七1层,050000,餐饮服务;餐饮相关场所;餐饮相关,"烧鹅饭,鹅掌,脆皮烧鹅,卤水鹅肾饭,烧腊三拼,单人餐",113.31936,23.131964
B0L0ZKDU5U,小山园中式融合餐厅,小山园中式融合餐厅,non_chicken,,天河区,体育西横街与体育东路辅路交叉口西80米,050700,餐饮服务;冷饮店;冷饮店,"黑金卤肉饭,港式餐蛋面,泰式奶绿,招牌暴打柠檬绿茶,青桔普尔柠檬茶,柠檬茶,双人餐,单人餐",113.321758,23.131072
B0J3OUWTTI,辣风芹新疆炒米粉,辣风芹新疆炒米粉,other_chicken,推荐菜,天河区,体育东路13号(冼村地铁站B口步行330米),050100,餐饮服务;中餐厅;中餐厅,"烤肠,酱香鸡肉炒米粉,天润奶啤,酱香鸡肉炒全家福,年糕,酱香蟹排炒米粉,新疆炒米粉,米粉,新疆炒米粉,鸡肉,酱香鸡肉炒米粉",113.322396,23.131242
B0I2TCTH5U,甘思咪哚云南艺术餐厅(花城汇店),甘思咪哚云南艺术餐厅,non_chicken,,天河区,花城大道89号中区171铺中区172铺,050000,餐饮服务;餐饮相关场所;餐饮相关,"石屏包浆豆腐（6片）,云南小锅米线,云南传统过桥米线,冰川糯茄,豆花杂酱捞米线,米线,云南小锅米线,云南传统过桥米线,鲜花饼",113.319093,23.12276
B0FFH5S1R9,海畔渔家•潮菜盛宴(星汇园店),海畔渔家•潮菜盛宴,non_chicken,,天河区,珠江新城金穗路50号星汇园(儿童医院正对面),050119,餐饮服务;中餐厅;海鲜酒楼,"卤肉,海鲜盛宴,肉饼,螃蟹,鲍鱼,龙虾,潮菜",113.314746,23.126105
B00140CEU6,东江菜馆(育蕾小区店),东江菜馆,traditional,推荐菜,天河区,育蕾小区育蕾二街2号107,050100,餐饮服务;中餐厅;中餐厅,"豆腐,铁板烧,手撕鸡,肉饼,茄子,东江名菜招牌盐焗鸡",113.316684,23.131266
B0M655I6WB,惠爱饭店(珠江新城店),惠爱饭店,non_chicken,,天河区,冼村街道花城大道85号高德置地春广场5层507号,050103,餐饮服务;中餐厅;广东菜(粤菜),"玉竹薏米乳鸽冬瓜盅,七彩三文鱼捞起,豉油皇鹅肠,招牌红烧肉,煎酿山水豆腐,凤梨咕噜肉,薏米",113.316748,23.122631
B0LKPAZ8S1,二强家·东北烧烤店,二强家·东北烧烤店,non_chicken,,天河区,六运小区体育西横街35号,050118,餐饮服务;中餐厅;特色/地方风味餐厅,"烤肉,双人餐",113.317813,23.131869
B0K1RSVZDJ,蚝魁·海鲜大排档·啫啫·生蚝(体育西店),蚝魁·海鲜大排档·啫啫·生蚝,other_chicken,推荐菜,天河区,体育西横街23号(鱼神对面),050119,餐饮服务;中餐厅;海鲜酒楼,"牛肉,双人餐,宵夜,海鲜大排档,生蚝,大排档,鸡肉,咸蛋黄啫鸡中翅,啫啫煲",113.317703,23.131961
B0MBC7OH7L,陈记麻辣香锅(天河店),陈记麻辣香锅,non_chicken,,天河区,南雅苑小区北1门旁,050102,餐饮服务;中餐厅;四川菜(川菜),单人餐,113.324408,23.131741
B0MBAXBD2U,奈作NASAKU·现制面屋(体育西横街店),奈作NASAKU·现制面屋,other_chicken,推荐菜,天河区,体育西路体育西横街115-1号,050202,餐饮服务;外国餐厅;日本料理,"天妇罗拼盘,工作日单人餐,小吃三拼,鸡豚浓汤拉面单人餐,开业尝鲜,日式煎饺,单人餐",113.320095,23.131505
B0KUOMVAVA,鱼神脆皮烤鱼(体育西路店),鱼神脆皮烤鱼,other_chicken,推荐菜,天河区,体育西横街36号,050118,餐饮服务;中餐厅;特色/地方风味餐厅,"嘎嘎脆盐酥鸡,脆甜藕片,招牌脆皮烤鱼(藤椒金汤味),粉粉入味土豆片,白玉金针菇,五常香米饭,招牌脆皮烤鱼（香麻辣味）,招牌脆皮烤鱼（葱香味）,招牌脆皮烤鱼（蒜香味）,甜心娃娃菜,娃娃菜,土豆片,烤鱼",113.317447,23.131737
B0KKZAOOX4,燃嬢嬢宜宾面·麻辣烫(六运店),燃嬢嬢宜宾面·麻辣烫,non_chicken,,天河区,六运三街51号首层(体育中心地铁站出入口步行480米),050000,餐饮服务;餐饮相关场所;餐饮相关,麻辣烫,113.32207,23.132476
B0IG1DEPKB,达美乐比萨(珠江新城店),达美乐比萨,other_chicken,推荐菜,天河区,兴盛路6号101铺(部位自编1F-08号铺),050300,餐饮服务;快餐厅;快餐厅,"香甜双虾菠萝比萨,经典大阪烧风味海陆比萨,经典意式肉酱比萨,金枪鱼海鲜荟萃比萨,黑松露风味菌菇鸡肉比萨,苏丹王榴莲多多给荔比萨,嫩滋肋眼牛排,芝士焗烤嫩汁三文鱼,马德里风情牛腩大虾比萨,托斯卡纳风情芝浓三文鱼比萨,冬日暖饮,火山饼底,西西里风情尊牛多多笋鲜比萨,可可火山饼底,苏丹王榴莲红毛丹比萨,美式豪情牛肉培根菠萝比萨,英式惠灵顿菲力牛排比萨,可可熔岩芝士流心卷边,金尊猫山王榴莲多多比萨,照烧风味牛肉土豆比萨,意大利雪球芝士多肉多芝比萨,新加坡砂煲风味腊肠鸡肉比萨,呼伦贝尔羔羊排,双人餐,比萨",113.323183,23.123261
B0I69C6RTM,遇见小面(花城汇中区店),遇见小面,modern,推荐菜,天河区,花城大道89号花城汇中区1层A022-023号铺,050100,餐饮服务;中餐厅;中餐厅,"酸菜卤肉面,老麻抄手,爆浆豆腐串(2串),琥珀冰粉,阳光番茄牛肉面,脆皮半只鸡麻辣小面,内蒙古羔羊羊肉串(3串),酥脆鸡排(1块),川味酸菜牛肉面,酸菜卤肉饭,酥掉渣芝麻烧饼(1个),金碗酸辣粉,脆皮半只鸡阳光番茄汤面,葱酥骨汤抄手,白玉厚椰乳,秘制脆皮半只鸡,销魂擂椒卤肉面,鸡肉,冰粉,柠檬茶,小面,酸辣粉",113.319405,23.122611
B0H3SSJTO7,袁记云饺(广州市天河区体育西横街店),袁记云饺,non_chicken,,天河区,体育西横街109号,050300,餐饮服务;快餐厅;快餐厅,"单人餐,堂食",113.319228,23.130942
B0FFIVZ1VP,樊阿姨现烤肉夹馍(体育西路店),樊阿姨现烤肉夹馍,other_chicken,推荐菜,天河区,体育西路体育西横街142号103铺,050100,餐饮服务;中餐厅;中餐厅,"酱香豆角焖面,酸汤臊子面+青椒肉夹馍,麻辣鸡丝凉面,手工臊子面,手磨芝麻酱凉皮,现烤青椒肉夹馍,肉夹馍,单人餐,现烤青椒肉夹馍",113.319271,23.131148
B0FFHWH7SK,遇见小面(花城汇北区店),遇见小面,modern,推荐菜,天河区,珠江西路花城汇北区负一楼H114铺,050000,餐饮服务;餐饮相关场所;餐饮相关,"酸菜卤肉面,老麻抄手,爆浆豆腐串(2串),琥珀冰粉,酥掉渣芝麻烧饼(1个),金碗酸辣粉,脆皮半只鸡阳光番茄汤面,阳光番茄牛肉面,脆皮半只鸡麻辣小面,内蒙古羔羊羊肉串(3串),酥脆鸡排(1块),川味酸菜牛肉面,酸菜卤肉饭,葱酥骨汤抄手,白玉厚椰乳,秘制脆皮半只鸡,销魂擂椒卤肉面,酸辣粉",113.319356,23.128099
B00141J5ZQ,麦当劳(华夏路餐厅),麦当劳,other_chicken,推荐菜,天河区,珠江新城花城大道华夏路85、87号F1-5地块高德置地广场春商场第B2/F层01、02单元,050302,餐饮服务;快餐厅;麦当劳,"人气美味尽享套餐,原味板烧鸡腿麦满分组合,板烧美味三件套,麦辣鸡腿堡,安格斯系列,巨无霸汉堡,大脆鸡扒麦满分组合,麦辣美味三件套,家有金桶（脆鸡版）,麦当劳超值嗨餐,（2-3人餐）,家有金桶（汉堡版）,可乐鸡翅,汉堡",113.316246,23.122616
B00140SR47,尊宝比萨(体育西店),尊宝比萨,modern,推荐菜,天河区,黄埔大道西89号自编1号,050300,餐饮服务;快餐厅;快餐厅,"和风照烧披萨,超级至尊披萨,蒜香烤鸡翅,榴莲比萨,核桃烤鸡披萨,骨肉相连,风情香鸡翼,海鲜披萨,奥尔良烤翅比萨,鳗烧比萨,吞拿鱼披萨,新奥尔良烤鸡肉披,劲爆鸡米花,五香牛肉,经典肉酱意粉,下午茶,杨枝甘露,宵夜,披萨,榴莲披萨,芝士,薯条,鸡肉,比萨",113.316743,23.130528
B00140BAMU,利口福(体育东横街店),利口福,other_chicken,推荐菜,天河区,体育东横街6号(冼村地铁站B口步行490米),050800,餐饮服务;糕饼店;糕饼店,"绵滑金沙包,莲蓉包,凤沙奶黄包,奶油方包,汤圆,豆沙包,鲍汁香葱叉烧肠粉,鱼头煲,陈皮鸭,陈年果香牛肉烧卖,银杏喼汁牛仔骨,铁棍淮山大连鲍煲,金银蒜胜瓜捞鲜鱿,野菌黑椒爆和牛,豉油糖煎焗鲍鱼,糯米鸡,三明治,点心",113.324054,23.131668
B0MBTUCS52,超牛堡·炙烤牛肉汉堡(雅居乐店),超牛堡·炙烤牛肉汉堡,non_chicken,,天河区,雅居乐中心,050300,餐饮服务;快餐厅;快餐厅,,113.316712,23.126771
B0KKLODXVW,蒙自源(广州市天河花城汇北区店)(暂停营业),蒙自源,non_chicken,,天河区,天河区花城汇北区负一楼蒙自源,050300,餐饮服务;快餐厅;快餐厅,下午茶,113.319762,23.127077
B0L3T78GXW,广清一号鸡煲·清远桑拿鸡(石牌店),广清一号鸡煲·清远桑拿鸡,traditional,招牌,天河区,冼村街道黄埔大道西120号101房自编112B-2B单元房,050103,餐饮服务;中餐厅;广东菜(粤菜),"宵夜,鸡煲",113.334033,23.12815
B0KKZROQ1P,冯记鸡煲王脆皮鸡煲起片鸡,冯记鸡煲王脆皮鸡煲起片鸡,traditional,招牌,天河区,六运六街1号之三中间店铺,050100,餐饮服务;中餐厅;中餐厅,"桑拿鸡,鸡煲,鸡皮",113.326011,23.132041
B0MGKAJTJT,炒吉动·兴盛路鸡王,炒吉动·兴盛路鸡王,other_chicken,招牌,天河区,兴国路32号首层01自编110房之四房,050000,餐饮服务;餐饮相关场所;餐饮相关,,113.325611,23.124419
B0L2KDFN6N,广味炭炉鸡煲(兴盛路店),广味炭炉鸡煲,other_chicken,招牌,天河区,兴盛路一里兴盛11号201铺,050100,餐饮服务;中餐厅;中餐厅,,113.326458,23.123522
B0K1JU7KOC,幸运广式炭炉鸡煲,幸运广式炭炉鸡煲,other_chicken,招牌,天河区,猎德大道31号中海璟晖华庭二期,050100,餐饮服务;中餐厅;中餐厅,,113.327034,23.123425
B0K14LZOPV,椰赞海南鸡饭(太古汇店),椰赞海南鸡饭,modern,招牌,天河区,275号玉兰汇背后(广信花园),050100,餐饮服务;中餐厅;中餐厅,海南鸡饭,113.327298,23.130043
B0L2GOT4J5,秋盈手撕鸡(冼村店),秋盈手撕鸡,traditional,招牌,天河区,金穗路71号冼村市场新街市043号铺秋盈手撕鸡冼村店,050000,餐饮服务;餐饮相关场所;餐饮相关,手撕鸡,113.327043,23.125881
B0FFG8E70E,好食光湛江白切鸡店,好食光湛江白切鸡店,traditional,招牌,天河区,黄埔大道西369号金桥电脑城一楼好食光湛江白切鸡店,050300,餐饮服务;快餐厅;快餐厅,,113.332378,23.130156
B0LRFZ6R94,椰顺·文昌鸡师傅(太古汇店),椰顺·文昌鸡师傅,modern,招牌,天河区,体育东横街与六运六街交叉口西北20米,050000,餐饮服务;餐饮相关场所;餐饮相关,文昌鸡,113.327003,23.131458
B0FFH9K0RO,窑鸡王(天河南店),窑鸡王,traditional,招牌,天河区,体育东路体育东横街86号104房,050000,餐饮服务;餐饮相关场所;餐饮相关,"卤香鸭脖,卤香鸭肠,腊味饭,盐焗三宝,盐焗鸡爪,招牌窑鸡（整只）,招牌窑鸡,卤香鹌鹑蛋,盐焗鸡心,卤香藕片,卤香三结义,双人餐",113.327114,23.131091
B0LB9LY7KO,葛哥哥原汁葛水鸡,葛哥哥原汁葛水鸡,other_chicken,招牌,天河区,国六宝肉菜市场3楼(猎德地铁站D口步行340米),050100,餐饮服务;中餐厅;中餐厅,,113.325125,23.12376
B0JGGZNQC3,正新鸡排(番禺大石),正新鸡排,modern,招牌,天河区,大石石牌坊458号,050300,餐饮服务;快餐厅;快餐厅,,113.333977,23.131187
B0LKGN0T15,白天炒鸡,白天炒鸡,other_chicken,招牌,天河区,冼村街冼村社区兴国路32号盈嘉花园,050000,餐饮服务;餐饮相关场所;餐饮相关,,113.325579,23.12434
B0L3TD7Z69,食光鸡,食光鸡,other_chicken,招牌,天河区,黄埔大道西273号广信花园,050100,餐饮服务;中餐厅;中餐厅,,113.327247,23.129912
B0L09ODPJW,肥姨鲜土鸡,肥姨鲜土鸡,traditional,招牌,天河区,兴盛路9号保利·心语(猎德地铁站D口步行360米),050000,餐饮服务;餐饮相关场所;餐饮相关,,113.325102,23.123578
B0LUCXX4DQ,尚林四季餐厅(尚东美御店),尚林四季餐厅,non_chicken,,天河区,猎德大道48号之三103铺,050100,餐饮服务;中餐厅;中餐厅,,113.328786,23.126455
B0FFGNSYI5,汉堡王(广东高志),汉堡王,modern,推荐菜,天河区,黄埔大道西120号1楼103B商铺,050300|050700,餐饮服务;快餐厅;快餐厅|餐饮服务;冷饮店;冷饮店,"意式罗勒皇堡,霸王鸡条,薯条王,荤素双享堡,双层黑椒烤猪堡,薯霸王,草莓新地,天妇罗什蔬脆鸡堡,爆浆芝士鸡排堡,玉米猪肉堡,嫩香鸡块,洋葱圈,鲍汁烤大菇牛堡,巧力新地,仙野蓝莓新地,薯条,汉堡,双人餐,单人餐",113.33454,23.128608
B0FFIAHJBF,麦当劳(猎德大道分店),麦当劳,other_chicken,推荐菜,天河区,猎德大道31号2楼(猎德地铁站C口步行340米),050302,餐饮服务;快餐厅;麦当劳,"板烧美味三件套,家有金桶（汉堡版）,麦当劳超值嗨餐,（2-3人餐）,麦辣美味三件套,大脆鸡扒麦满分组合,人气美味尽享套餐,家有金桶（脆鸡版）,原味板烧鸡腿麦满分组合,可乐鸡翅,麦辣鸡腿堡,安格斯系列,巨无霸汉堡,双人餐,汉堡",113.327655,23.123437
B00140TZ3W,大良毋米粥·粥水火锅(珠江新城冼村店),大良毋米粥·粥水火锅,other_chicken,推荐菜,天河区,金穗路72号盈嘉花园103号-201号,050117,餐饮服务;中餐厅;火锅店,"粥水火锅,牛肉丸,海蚬,炸牛奶,油条,炒陈村粉,海鲜,XO酱炒陈村粉,煎焗鱼骨,白贝,煎焗鸡,小象拔蚌,西安肥牛片,手打猪肉丸,煎焗鱼嘴,叉烧,牛肉,鲍鱼",113.326331,23.125118
B0J09CPWNR,五溪红·地标大排档(广州获奖名店),五溪红·地标大排档,non_chicken,,天河区,猎德大道38号101-102房,050100,餐饮服务;中餐厅;中餐厅,"小龙虾,长沙臭豆腐,炒螺蛳,香辣大闸蟹,大排档,小炒田螺肉,口味虾",113.328945,23.123326
B0KAYU3OAG,佬财记海鲜大排档(兴盛路店),佬财记海鲜大排档,traditional,推荐菜,天河区,兴盛路17号101号(101-21、22卡),050100,餐饮服务;中餐厅;中餐厅,"大排档,奶油,海鲜大排档,鸡爪,宵夜,鸡肉,啫啫煲,牛肉,鲍鱼啫走地鸡",113.32636,23.123545
B0HGLCQMUQ,蚝旺财大排档(珠江道店),蚝旺财大排档,other_chicken,推荐菜,天河区,猎德大道30号101房(猎德地铁站C口步行470米),050100,餐饮服务;中餐厅;中餐厅,"黑山羊肉煲,炭烤猪肘,爆膏奶油虾,炭烤鲍鱼,炭炉鸡煲,小龙虾,生蚝,双人餐,大排档,宵夜",113.328977,23.122756
B00141I9IB,侨美食家(珠江新城店),侨美食家,traditional,推荐菜,天河区,珠江新城兴盛路隽峰苑10号,050103,餐饮服务;中餐厅;广东菜(粤菜),"金牌红烧乳鸽,葡挞,金牌烧乳鸽,虾饺,波士顿龙虾,驰名椒盐十八香富贵虾,阿拉斯加长脚蟹,飘香千层榴莲酥,农家白切鸡,瑞士汁乳鸽,肠粉,上海小笼包,药膳凤爪,葡式蛋挞,秘制脆皮黑叉烧,奶油,家常菜,牛肉,叉烧,米线,瑶柱腊味煎萝卜糕,鲜花椒蒸笋壳鱼,侨美烧鹅皇,清蒸海河鲜",113.325493,23.122898
B00140NWXM,太白餐厅(广州天河区),太白餐厅,modern,推荐菜,天河区,体育东横街82号,050100,餐饮服务;中餐厅;中餐厅,"蒜香排骨,虾酱啫通菜,五柳炸蛋,越秀三杯鸡,椒盐九肚鱼,双人餐,单人餐",113.326693,23.131121
B0K2DLBO3N,鲜品楼(珠江新城店),鲜品楼,other_chicken,推荐菜,天河区,黄埔大道120号高志大厦2层,050000,餐饮服务;餐饮相关场所;餐饮相关,鸡肉,113.334268,23.128432
B0FFLK4DMM,及第粉(高志大厦优托邦驿站店),及第粉,non_chicken,,天河区,黄埔大道西120号101室,050100,餐饮服务;中餐厅;中餐厅,"及第/瘦肉汤,及第/瘦肉汤粉,招牌捞手工沙河粉,单人餐",113.334478,23.128615
B0K3UCRIXU,蒙自源(广州天河高志大厦店),蒙自源,non_chicken,,天河区,黄埔大道西120号高志大厦B1层,050100,餐饮服务;中餐厅;中餐厅,下午茶,113.334384,23.128349
B0FFHFIWQ9,寻牛记·酱香鹅(石牌店),寻牛记·酱香鹅,traditional,推荐菜,天河区,黄埔大道西427号之二绿荷大街,050100,餐饮服务;中餐厅;中餐厅,"手撕鸡,牛肉",113.33423,23.129758
B0KRV96DKZ,赛百味(广州高志优托邦店),赛百味,modern,推荐菜,天河区,冼村街道黄埔大道西120号101房自编110、110A单元,050300,餐饮服务;快餐厅;快餐厅,"香溢金枪鱼双拼三明治三件套,黑胡椒厚切牛排三明治三件套,日式照烧鸡三明治,西式火腿三明治,黑胡椒厚切牛排三明治,金枪鱼三明治,火鸡胸百味卷,照烧鸡蛋料双拼三明治三件套,双人餐",113.334312,23.128465
B0K2HSL47E,遇见小面(高志大厦店),遇见小面,modern,推荐菜,天河区,黄埔大道西120号高志大厦1层,050100,餐饮服务;中餐厅;中餐厅,"阳光番茄牛肉面,脆皮半只鸡麻辣小面,内蒙古羔羊羊肉串(3串),酥脆鸡排(1块),川味酸菜牛肉面,酸菜卤肉饭,酸菜卤肉面,老麻抄手,爆浆豆腐串(2串),琥珀冰粉,葱酥骨汤抄手,白玉厚椰乳,秘制脆皮半只鸡,销魂擂椒卤肉面,酥掉渣芝麻烧饼(1个),金碗酸辣粉,脆皮半只鸡阳光番茄汤面,酸辣粉,重庆小面",113.334033,23.1287
B0J1652DNA,笑谈小街·韩国料理(珠江新城店),笑谈小街·韩国料理,modern,推荐菜,天河区,兴盛路11号兴盛汇3楼301铺,050203,餐饮服务;外国餐厅;韩国料理,"鸳鸯饼,豚骨浓汤,调味牛排肉,韩式酱螃蟹,和牛眼肉,炒年糕,香辣炒猪肉,部队火锅,芝士鸡蛋卷,生拌牛肉,坛子调味牛排,辣牛肉汤,牛排骨浓汤,炖牛排,现切五花肉,秘制酱果牛排肉,蜂巢五花肉,泡菜饼,和牛板健,大王炸猪排,澳洲M5牛小排,炸鸡,牛五花肉,辣椒蒜香炸鸡,牛肠拼盘,特级雪花牛肉,辣鸡爪,芝士炸猪排,炸鸡+生啤,泡菜炒饭,海鲜葱饼,猪肉拼盘,鱼饼汤,石锅拌饭,和牛生拌牛肉,铁板炒鸡肉,泡菜面条,铭泰鱼火锅,米肠汤,参鸡汤,调味牛排骨,坛子调味牛肉,菌菇杂菜,双人餐,烤肉,牛肉",113.325905,23.123587
B0GK9CRG2Q,都城快餐(天河东店),都城快餐,modern,推荐菜,天河区,天河东路德欣小区46-50号108铺,050300,餐饮服务;快餐厅;快餐厅,"辣子鸡,云吞,油条,玉米汁,米粉,肠粉",113.329514,23.132422
B0FFI264R0,都城快餐(石牌海安路街市店),都城快餐,modern,推荐菜,天河区,海业路3号石牌村F1层,050300,餐饮服务;快餐厅;快餐厅,"柠檬茶,肠粉,玉米汁,家常菜,辣子鸡",113.333617,23.126796
B0MBL5T4MC,西都和牛,西都和牛,non_chicken,,天河区,天河南街道体育东横街98-2铺,050201,餐饮服务;外国餐厅;西餐厅(综合风味),"意面,烤肠,煎蛋",113.327335,23.131519
B0FFGWR997,吉品料理(维多利大厦店),吉品料理,other_chicken,推荐菜,天河区,黄埔大道西106号维多利大厦F5层,050202,餐饮服务;外国餐厅;日本料理,"极佳牛肉薄烧,什锦天妇罗,三文鱼蓉饭,铁板鸡扒,海胆,刺身拼盘,香煎黄花鱼,铁板牛肉,鹅肝,海胆酱烧老虎虾,鲜鳗鱼,铁板雪鱼,天妇罗虾卷,大虾天妇罗,海胆酱焗大虾,特色菜,料理",113.331338,23.128505
B0I079PSKU,食野·SAYYEAH·创意轻食(天河店)(暂停营业),食野·SAYYEAH·创意轻食,non_chicken,,天河区,天河东路46号,050300,餐饮服务;快餐厅;快餐厅,单人餐,113.329096,23.132416
B0L16RSFIW,小菜园新徽菜(天河正佳广场店),小菜园新徽菜,non_chicken,,天河区,天河路228号正佳广场6楼,050000,餐饮服务;餐饮相关场所;餐饮相关,徽菜,113.321679,23.134823
B0K3O7UFDQ,小荔园·广州名菜豉油鸡(正佳店),小荔园·广州名菜豉油鸡,traditional,招牌,天河区,天河路228号正佳广场3楼东街020a-b,050103,餐饮服务;中餐厅;广东菜(粤菜),"鸡肉,双人餐,牛肉",113.3216,23.134744
B0I1BSWPGO,小荔园·广州名菜豉油鸡(VT101维多利广场店),小荔园·广州名菜豉油鸡,traditional,招牌,天河区,体育西路101号VT101维多利广场F5层,050103,餐饮服务;中餐厅;广东菜(粤菜),"双人餐,鸡肉,失传豉油鸡,广式腊味煲仔饭,赤酱黑叉烧",113.31585,23.137467
B0KUFC9VCH,牛扒先生·厚切雪花牛扒西餐厅(时尚天河西区店),牛扒先生·厚切雪花牛扒西餐厅,non_chicken,,天河区,天河路299号时尚天河商业广场,050000,餐饮服务;餐饮相关场所;餐饮相关,"牛扒,卤肉,意面",113.316971,23.137364
B0FFK67WIL,椰妹·椰子鸡火锅(正佳广场店),椰妹·椰子鸡火锅,modern,招牌,天河区,天河路228号501号铺5066号(正佳广场中庭5楼),050117,餐饮服务;中餐厅;火锅店,"鸡肉,腊味煲仔饭",113.321594,23.13455
B0FFFVY74B,椰客·海南椰子鸡(体育西路店),椰客·海南椰子鸡,modern,招牌,天河区,体育西路101号5层504单元(自编号),050100,餐饮服务;中餐厅;中餐厅,"豆黄金鲜腐竹,竹笙鲜菌椰子鸡,安格斯肥牛,手打虾滑,香糯椰子船,木瓜花胶椰子鸡,鸡肉",113.315711,23.137172
B0MB67O6XL,2派克脆皮鸡排(广州天河店),2派克脆皮鸡排,modern,招牌,天河区,天河路299号时尚天河商业广场西六街069号B1层,050300,餐饮服务;快餐厅;快餐厅,,113.319432,23.137327
B0K0YAE6L9,椰客·海南椰子鸡(广州天河城店),椰客·海南椰子鸡,modern,招牌,天河区,天河路208号天河城7F层712,050000,餐饮服务;餐饮相关场所;餐饮相关,鸡肉,113.317287,23.134552
B0L39GQYXQ,甘煸记·干煸辣子鸡(时尚天河商业广场店),甘煸记·干煸辣子鸡,modern,招牌,天河区,天河路299号时尚天河商业广场B1层,050100,餐饮服务;中餐厅;中餐厅,,113.319512,23.137324
B0LUVUE4BB,甘煸记·干煸辣子鸡(天河正佳广场店),甘煸记·干煸辣子鸡,modern,招牌,天河区,天河路228号B1层B1594,050300,餐饮服务;快餐厅;快餐厅,,113.321575,23.134978
B0FFG9V0T6,客语客家菜(维多利店),客语客家菜,traditional,推荐菜,天河区,体育西路101号维多利广场5F(优衣库同栋),050100,餐饮服务;中餐厅;中餐厅,"客语豆腐,客语土猪汤,手撕鸡,客家咸鸡,滑嫩猪红,鸡汤苦麦菜,脆皮猪手,曾经的老南瓜,盐焗手撕鸡,客嫂腌面,有机花菜,小炒黄牛肉,客家焖全猪,凤爪,鸡肉,酸菜鱼,客家菜,豆腐",113.315576,23.137686
B0LKYZ462V,老韩煸鸡·中式炸鸡(广州时尚天河西六街店),老韩煸鸡·中式炸鸡,modern,招牌,天河区,天河南街道天河路299号时尚天河B1层西六街068号,050100,餐饮服务;中餐厅;中餐厅,中式炸鸡,113.318714,23.137125
B0I2G7KULM,牛扒先生·厚切雪花牛扒西餐厅(正佳广场店),牛扒先生·厚切雪花牛扒西餐厅,other_chicken,推荐菜,天河区,天河路正佳广场负一楼B1-011C,050211,餐饮服务;外国餐厅;牛扒店(扒房),"巧克力,牛排,双人餐,牛肉,鸡肉",113.321121,23.134138
B0K0UUX62C,Pelicana百利家炸鸡(时尚天河店),Pelicana百利家炸鸡,modern,招牌,天河区,时尚天河负一楼西区西六街079铺,050000,餐饮服务;餐饮相关场所;餐饮相关,,113.318923,23.136752
B0LDMUELB3,野火炊·客家现烧窑鸡(时尚天河店),野火炊·客家现烧窑鸡,other_chicken,招牌,天河区,天河路299号时尚天河商业广场B1层,050100,餐饮服务;中餐厅;中餐厅,,113.316618,23.136679
B0L3H9B4MC,正谈炸鸡(正佳广场店),正谈炸鸡,modern,招牌,天河区,天河路228号正佳广场B1层,050100,餐饮服务;中餐厅;中餐厅,炸鸡,113.321087,23.134562
B0LRJ1HCKJ,甘煸记·干煸辣子鸡(天河广百中心店),甘煸记·干煸辣子鸡,modern,招牌,天河区,天河又一城1号(出入口)南段天河又一城负一层D001-D002号铺甘煸记,050100,餐饮服务;中餐厅;中餐厅,,113.317217,23.134629
B0FFLF13BV,老家土鸡·岭南风味鸡煲(正佳广场店),老家土鸡·岭南风味鸡煲,traditional,招牌,天河区,天河路228号正佳广场M层D区美食街D33,050100,餐饮服务;中餐厅;中餐厅,"双人餐,鸡肉",113.321602,23.134741
B0KRP7PRKF,虎头炸·潮汕南乳炸鸡(维多利广场店),虎头炸·潮汕南乳炸鸡,modern,招牌,天河区,体育西路101号维多利广场架空层走廊自编号叁号,050300,餐饮服务;快餐厅;快餐厅,炸鸡,113.315601,23.137368
B0G246DK5J,探窝·竹笙椰子鸡(体育西店),探窝·竹笙椰子鸡,traditional,招牌,天河区,广利路92号,050117,餐饮服务;中餐厅;火锅店,"腊味煲仔饭,椰子汁,原味椰子鸡,水鱼椰子鸡,野生竹笙,椰子文昌鸡,椰子糕,皇庭胡椒猪肚鸡,椰子炖奶,大闸蟹,黑松露,黑龙雪花肥牛,文昌鸡,鯪魚面,北极虾,鸡肉,双人餐,腊味煲仔饭,胡椒猪肚鸡",113.315492,23.132885
B0K2AH0NBT,老韩煸鸡·中国炸鸡(正佳广场店),老韩煸鸡·中国炸鸡,modern,招牌,天河区,天河路228号正佳商业广场负一层,050000,餐饮服务;餐饮相关场所;餐饮相关,"炸鸡,鸡肉",113.321602,23.134741
B0L14O387Y,正新鸡排(广百中怡店),正新鸡排,modern,招牌,天河区,体育西路79号之一,050000,餐饮服务;餐饮相关场所;餐饮相关,"黄金脆皮鸡排,开花全肉肠一串,阿拉伯烤肉一串,鱿鱼须1串),火爆鱿鱼(1串),青梅汁,果粒橙,山楂汁,原味鸡排,香辣鸡排,正新鸡排推广套餐,藤椒全翅,爆浆芝士鸡排,鸡胗（1串）,羊肉串（2串起售）,烤面筋,香肠",113.315524,23.134808
B0L0N9S7DD,韩国三养火鸡面(时尚天河店),韩国三养火鸡面,modern,招牌,天河区,天河路299号时尚天河商业广场B1层,050100,餐饮服务;中餐厅;中餐厅,,113.320736,23.136772
B0L35MDZCL,有米师傅·煲仔饭专门店(时尚天河店),有米师傅·煲仔饭专门店,non_chicken,,天河区,天河路299号时尚天河商业广场B1层,050100,餐饮服务;中餐厅;中餐厅,煲仔饭,113.316927,23.136795
B0FFGK92TZ,周黑鸭(广州体育西地铁站三店),周黑鸭,non_chicken,,天河区,广州地铁三号线体育西路站TYXL-3-1S号,050000,餐饮服务;餐饮相关场所;餐饮相关,"鸭货,鸭掌,鱿鱼,鸭翅,鸭锁骨",113.316568,23.13468
B0J6GBFA2A,农家菜湛江鸡(正佳百货店),农家菜湛江鸡,traditional,招牌,天河区,天河路228号正佳广场M层D10档,050100,餐饮服务;中餐厅;中餐厅,农家菜,113.321009,23.134922
B0FFLNZL8P,周黑鸭(广州杨箕地铁站店),周黑鸭,non_chicken,,天河区,广州地铁一号线杨箕站YJ-1-1S号,050000,餐饮服务;餐饮相关场所;餐饮相关,"卤菜,鸭翅,小龙虾,虎皮凤爪",113.322456,23.13302
B0FFHFIXGT,翠凤鸣湛江鸡饭(正佳广场店),翠凤鸣湛江鸡饭,traditional,招牌,天河区,天河路228号正佳广场M层,050100,餐饮服务;中餐厅;中餐厅,,113.32141,23.134728
B0L1551ICK,创膳金牌烧鹅(体育东店),创膳金牌烧鹅,traditional,推荐菜,天河区,体育东路140丽珀SOHOF1层,050100,餐饮服务;中餐厅;中餐厅,"招牌手撕鸡拼烧鸭饭,脆皮烧鸭拼白切鸡饭,脆皮烧鸭饭,单人餐",113.323742,23.141569
B0JUVAYWR9,周黑鸭(广州体育西店),周黑鸭,non_chicken,,天河区,广利路75号东洲大厦B座F1层,050000,餐饮服务;餐饮相关场所;餐饮相关,虎皮凤爪,113.314868,23.133081
B0L0MN8KPM,椰鲜笙·竹笙椰子鸡(时尚天河中一街店),椰鲜笙·竹笙椰子鸡,modern,招牌,天河区,天河路299号时尚天河商业广场B1层,050117,餐饮服务;中餐厅;火锅店,,113.316967,23.137379
B0L2MHZG6J,鸡柳大人(天河体育中心店),鸡柳大人,modern,招牌,天河区,天河路293号时尚天河负一楼东C街C010,050300,餐饮服务;快餐厅;快餐厅,鸡柳,113.321157,23.137021
B0LKMO5Z98,锦喜福钵钵鸡(时尚天河商业广场店),锦喜福钵钵鸡,other_chicken,招牌,天河区,天河路299号时尚天河商业广场,050100,餐饮服务;中餐厅;中餐厅,钵钵鸡,113.321059,23.136621
B0J0C7CSG6,麦当劳(天盛大厦店),麦当劳,non_chicken,,天河区,体育东路35号天盛大厦旁边,050302,餐饮服务;快餐厅;麦当劳,,113.3225,23.132645
B0LKBUU84X,鸡柳大人(六运店),鸡柳大人,modern,招牌,天河区,六运小区北门旁(体育西路地铁站B口步行140米),050000,餐饮服务;餐饮相关场所;餐饮相关,鸡柳,113.318217,23.133563
B0LKDCNQ9O,大湾鸡元气馆,大湾鸡元气馆,other_chicken,招牌,天河区,正佳广场四楼东南街友谊商店门口,050100,餐饮服务;中餐厅;中餐厅,,113.322506,23.134219
B0JR7ZDFTL,唔求其鸡扒包(敏捷上品商业街店),唔求其鸡扒包,other_chicken,招牌,天河区,天河南一路16号(天河城南门对面),050000,餐饮服务;餐饮相关场所;餐饮相关,牛油,113.316712,23.133591
B0MBG43B67,麻辣重庆钵钵鸡,麻辣重庆钵钵鸡,other_chicken,招牌,天河区,体育西路54号b1层星之光·潮领地l1001,050102,餐饮服务;中餐厅;四川菜(川菜),,113.316069,23.13743
B0FFFS4YW5,麦当劳(广州正佳五楼餐厅),麦当劳,other_chicken,推荐菜,天河区,天河路228号正佳广场5楼501,050302,餐饮服务;快餐厅;麦当劳,"麦当劳超值嗨餐,（2-3人餐）,原味板烧鸡腿麦满分组合,板烧美味三件套,麦辣美味三件套,家有金桶（汉堡版）,大脆鸡扒麦满分组合,人气美味尽享套餐,家有金桶（脆鸡版）,麦辣鸡腿堡,安格斯系列,巨无霸汉堡,可乐鸡翅,双人餐,薯条,汉堡",113.321443,23.134586
B00140NVWJ,麦当劳(今日广场店),麦当劳,other_chicken,推荐菜,天河区,体育西路79-83号今日广场1-2层,050302|050700,餐饮服务;快餐厅;麦当劳|餐饮服务;冷饮店;冷饮店,"人气美味尽享套餐,原味板烧鸡腿麦满分组合,板烧美味三件套,麦辣鸡腿堡,安格斯系列,巨无霸汉堡,麦辣美味三件套,大脆鸡扒麦满分组合,家有金桶（脆鸡版）,麦当劳超值嗨餐,（2-3人餐）,可乐鸡翅,家有金桶（汉堡版）,汉堡,薯条",113.315915,23.135064
B0FFILD8SJ,麦当劳(广州维多利广场餐厅),麦当劳,other_chicken,推荐菜,天河区,体育西路101号VT101维多利广场1-2层,050302,餐饮服务;快餐厅;麦当劳,"麦辣鸡腿堡,安格斯系列,巨无霸汉堡,板烧美味三件套,大脆鸡扒麦满分组合,人气美味尽享套餐,原味板烧鸡腿麦满分组合,家有金桶（脆鸡版）,麦辣美味三件套,麦当劳超值嗨餐,（2-3人餐）,可乐鸡翅,家有金桶（汉堡版）,双人餐,汉堡,薯条",113.314957,23.137443
B00140T313,麦当劳(对外经贸大厦分店餐厅),麦当劳,other_chicken,推荐菜,天河区,天河路351号广东对外经贸大厦首层,050302,餐饮服务;快餐厅;麦当劳,"人气美味尽享套餐,原味板烧鸡腿麦满分组合,板烧美味三件套,麦辣鸡腿堡,安格斯系列,巨无霸汉堡,大脆鸡扒麦满分组合,麦辣美味三件套,麦当劳超值嗨餐,（2-3人餐）,可乐鸡翅,家有金桶（汉堡版）,家有金桶（脆鸡版）,汉堡,双人餐,薯条",113.323836,23.136435
B0FFJ9T1FK,赛百味(万菱汇店),赛百味,modern,推荐菜,天河区,天河路231号万菱汇B1层自编78号铺,050300,餐饮服务;快餐厅;快餐厅,"黑胡椒厚切牛排三明治,金枪鱼三明治,火鸡胸百味卷,香溢金枪鱼双拼三明治三件套,黑胡椒厚切牛排三明治三件套,日式照烧鸡三明治,西式火腿三明治,照烧鸡蛋料双拼三明治三件套,鲍鱼大虾,双人餐,三明治",113.323602,23.135515
B0FFL6SVRV,好客家(万菱汇店),好客家,traditional,推荐菜,天河区,天河路232号万菱汇L5层,050100,餐饮服务;中餐厅;中餐厅,"豆腐,牛肉,猪肉,鸡肉,手撕盐焗鸡",113.324299,23.135319
B00141JW2U,粤海喜来登酒店·采悦轩中餐厅,粤海喜来登酒店·采悦轩中餐厅,other_chicken,推荐菜,天河区,天河路208号粤海喜来登酒店天河路店3层,050100,餐饮服务;中餐厅;中餐厅,"牛肉球,清蒸鲈鱼,生磨杏仁茶,猪润烧卖,夏威夷果牛肉粒,上汤腐皮卷,星洲炒米粉,子姜乳鸽,糯米鸡,冬瓜粒煲土猪肉皮蛋粥,鲜菇菜心,香酥金牌虾脆肠,烤鳗酱牛汁蒸凤爪,贵妃鸡,蒸凤爪,经典鲜果咕噜肉,点心,大排档",113.31676,23.135312
B0LKKUNSGY,流浪泡泡·破破烂烂的烤肉店(正佳广场店),流浪泡泡·破破烂烂的烤肉店,modern,推荐菜,天河区,天河路228号正佳广场5F层,050000,餐饮服务;餐饮相关场所;餐饮相关,炸鸡,113.321558,23.135399
B0L07K0EYX,菌小白·野生菌火锅(时尚天河店),菌小白·野生菌火锅,other_chicken,推荐菜,天河区,天河路299号时尚天河商业广场B1层,050117,餐饮服务;中餐厅;火锅店,"鸡枞菌,牛肝菌,见手青,鹿茸菌,野生菌火锅",113.317466,23.136678
B0FFJ9SWK8,小炳胜(天环店),小炳胜,traditional,推荐菜,天河区,天河路天环广场B2层B219b,050103,餐饮服务;中餐厅;广东菜(粤菜),"始创脆皮叉烧,霸皇高原羊尾芯,酸汤桂鱼,炭火烧土排骨,酸汤长江鮰鱼,炖汤,芒果千层,捞起三文鱼,手抓萝卜大鸡脚,捞鸡,黑叉烧,烤蒸南海黄花鱼,酸汤牛羊杂,奶露包,灌汤烧鹅,叉烧,土鸡,窑鸡,豆腐,鸡肉,菠萝包,茄子,素菜,牛肉,烧鹅,三文鱼,菠萝包,黑叉烧,泰国芒果肠粉,清蒸海河鲜,秘制脆皮灌汤烧鹅,炸鱼皮,清灼墨鱼仔",113.319792,23.134219
B0KG9C1EH4,榕意·川味之美(天环广场店),榕意·川味之美,modern,推荐菜,天河区,天河路212号天环广场内B2层B219a,050100,餐饮服务;中餐厅;中餐厅,"鸡肉,牛肉,榕意毛血旺,榕意松子鱼,红油抄手,口水鸡,夫妻肺片",113.319694,23.134047
B0KA2ZBIMB,蘑界·野生菌火锅(广州首店),蘑界·野生菌火锅,other_chicken,推荐菜,天河区,天河路218号天环Parc Central东塔B2层,050117,餐饮服务;中餐厅;火锅店,"鸡肉,特色小吃",113.320086,23.135274
B0HR4CYO4R,广州酒家(百福广场店),广州酒家,modern,推荐菜,天河区,体育东路112号百福广场3-4层,050103,餐饮服务;中餐厅;广东菜(粤菜),"虾饺,像型墨鱼饺,纱窗邂逅,遍地锦装鳖,新奇士银鳕鱼,餐前点心,广州茅台鸡,像型刺猬包,金银泡饭,凤爪,榴莲酥,文昌鸡,萝卜糕,肠粉,四宝炒牛奶,早茶,点心,牛肉,手制特色靓濑粉,软绵香滑流沙包,驰名艇仔粥,xo酱爆萝卜糕,清香泮塘马蹄糕,荷香糯米鸡,干蒸烧麦,萝卜牛杂,瑶柱鱼籽干蒸烧卖,金鼎鲜味虾饺皇",113.323781,23.137848
B0HG0SYIDQ,新太二·鲜料川菜(广州正佳广场分店),新太二·鲜料川菜,traditional,推荐菜,天河区,正佳广场东街3楼(费大厨隔壁),050100,餐饮服务;中餐厅;中餐厅,"螺丝椒小炒肉,沸腾麻婆豆腐,吮指鸡翅,石锅鸡爪,爆炒鲜牛肉,菜籽油爆炒鲜土鸡,生焗蒜蓉粉丝虾,五花肉炒菜花,冰激凌糍粑,鸡蛋烧腐竹,辣椒炒肉,招牌鲈鱼酸菜鱼,糖醋咕噜肉,酸菜鱼,双人餐,沸腾麻婆豆腐",113.321575,23.134978
B0LB5A27Q1,九龙冰室(正佳广场店),九龙冰室,other_chicken,推荐菜,天河区,正佳广场M层E107-E111号铺,050103,餐饮服务;中餐厅;广东菜(粤菜),"一口西多士,手摇弹珠奶茶,蛋挞,番茄牛肉面,黑松露炒蛋,招牌炸豆腐,常餐,冰棍奶茶,招牌芝士丸芝士捞丁,蒜香鸡翅,恐龙阿华田,通心粉,传统菠萝油,黑椒鸡扒牛角包,黑松露炒蛋公仔麵,黑豉油皇炒牛河,干炒牛河,鲜油菠萝包,糖水,怀旧红豆冰,和味萝卜牛杂,港式鲜虾云吞面",113.321951,23.135039
B0KDJACNGQ,渝月川菜(广州天河城店),渝月川菜,modern,推荐菜,天河区,天河路208号天河城6F层609-2,050100,餐饮服务;中餐厅;中餐厅,"毛肚,麻婆豆腐,鲜切水煮牛肉,老坛酸菜鲈鱼,山城毛血旺,酸菜鱼,秘制口水鸡,雪花牛肉烧麻婆豆腐,牛肉,肥肠,豆腐",113.316985,23.134419
B0J6AC1O9W,摩能肉蟹煲(正佳广场店),摩能肉蟹煲,modern,推荐菜,天河区,天河路228号正佳广场5层5A01214号,050118,餐饮服务;中餐厅;特色/地方风味餐厅,"排骨,肉蟹煲,螃蟹,豆腐,面食,鸡肉,特色口水鸡,年糕,拌饭,炒饭,鸡爪,鸡翅",113.321888,23.135429
B0I6B1SLSC,大榕树下顺德菜(正佳广场店),大榕树下顺德菜,other_chicken,推荐菜,天河区,正佳广场5楼广正街(体育中心地铁站出入口步行150米),050100,餐饮服务;中餐厅;中餐厅,"顺德捞鱼皮,古法菠萝咕噜肉,七彩捞鸡,酸菜炒大肠,咸蛋黄啫鲜虾,脆皮BB鸽,顺德豉味碌鹅,大良炸脆奶,上汤桑叶苗,鹿茸菌炖竹丝鸡,六婶黄皮骨,山楂红烧肉,杂菇浸鱼腐,黄豆苦瓜炖龙骨,老广腊味煲仔饭,鲍汁海皇豆腐,顺德公煎酿莲藕,鲜人参海底椰炖老鸡,石橄榄炖土猪肉,均安墨鱼饼,双人餐,家常菜,杨枝甘露,煲仔饭,豆腐,马拉糕,古法菠萝咕噜肉,老广腊味煲仔饭",113.321566,23.134711
B0FFKGMWOZ,来壹打·手工现蒸钵仔糕(天河南一路店),来壹打·手工现蒸钵仔糕,non_chicken,,天河区,六运一街48号(体育西路地铁站出入口步行210米),050800,餐饮服务;糕饼店;糕饼店,"榴莲钵仔糕,红豆钵仔糕,红茶钵仔糕,钵仔糕1,番薯钵仔糕,下午茶,芝士,巧克力,点心,椰汁红豆钵仔糕",113.318658,23.133508
B0FFJ9T00R,南京大牌档(天河城店),南京大牌档,other_chicken,推荐菜,天河区,南街道天河路208号天河城7层(体育西路地铁站C口旁),050100,餐饮服务;中餐厅;中餐厅,"双人餐,烤鸭,大排档,桂花糯米藕,鸡肉",113.316923,23.134339
B0FFJ9T001,港丽餐厅(天河城),港丽餐厅,modern,推荐菜,天河区,天河路208号天河城购物中心6楼,050103|050118,餐饮服务;中餐厅;广东菜(粤菜)|餐饮服务;中餐厅;特色/地方风味餐厅,"冰火菠萝油,金不换焗三杯鸡,蜂蜜厚多士,冰镇奶茶,鲜虾胶酿脆皮鸡翅,咕噜肉,手打墨鱼胶酿油条,杏鲍菇芝士牛肉粒,酸菜鱼,港丽炒饭,非主流沸腾鱼片,双色香兰糕,香兰奶冻双色卷,老式香港混酱肠粉,双人餐,牛肉,鸡肉",113.316977,23.134904
B0FFGYUUAV,山东老家·(正佳分店),山东老家·,other_chicken,推荐菜,天河区,天河路228号正佳广场六楼6c057a,050100,餐饮服务;中餐厅;中餐厅,"招牌拇指生煎包,无敌蛋白杏仁茶,金牌蝴蝶骨,招牌无骨酸菜鱼,老醋拌茼蒿,罐拌猪手,农家小鸡炖蘑菇,葱茜拌鸡,山东酱龙骨,我家拌小面,秘鲁九转大肠,砂锅山东老豆腐,京酱肉丝,蒜香鲜虾茄盒,牛肉,葱油饼,烤肉,烤鸭,羊肉,面皮,面食,鸡肉",113.321167,23.134432
B0FFG92D75,探鱼·鲜青椒爽麻烤鱼(广州正佳广场店),探鱼·鲜青椒爽麻烤鱼,other_chicken,推荐菜,天河区,天河路228号正佳广场六层6C054-55号商铺,050118,餐饮服务;中餐厅;特色/地方风味餐厅,"重庆豆花烤鱼,蒜香味烤鱼,碳烤糖醋排骨,泡椒凌波鱼,冰粉,烤茄子,酸梅汤,柠檬冰桔茶,川北凉粉,鲜青椒烤凌波鱼,烤牛蛙,萝卜烤鱼,酱香味凌波鱼,酱香味清江鱼,成都棒棒鸡,烤鱼",113.320628,23.134802
B0FFFEGO6J,乐凯撒披萨(正佳广场店),乐凯撒披萨,modern,推荐菜,天河区,天河路228号正佳广场B1楼,050205,餐饮服务;外国餐厅;意式菜品餐厅,"榴莲披萨拼黑松露,榴莲双拼比萨套餐,奥尔良烤鸡翅,香芒醉鸡披萨,黑黑黑鳗鱼披萨,烤肠仔,金枕榴莲披萨,牛油果奶昔,全是榴莲果肉披萨,经典凯撒沙拉,百香果vc,榴莲海底椰,牛油果霜,榴莲椰奶,小辣鸡翅中,榴莲披萨,单人餐,芝士,鸡肉,鸡翅,披萨",113.321282,23.134426
B0MBBUW4AA,蟹莽莽-地道贵州味(全国首店),蟹莽莽-地道贵州味,modern,推荐菜,天河区,体育西路101号维多利广场5层508室,050114,餐饮服务;中餐厅;云贵菜,"脆脆烧椒茄子,泡椒本港剥皮牛,老贵阳拌折耳根,独蒜辣子鸡,贵州香辣蟹,二块粑炒金沙腊肉,酸菜豆米烩软臊,家常素瓜豆,贵州香辣爆膏罗氏虾,木姜子辣木苗沙拉,香辣蟹,沙拉,辣子鸡",113.315874,23.13773
B0LRFZ6R7T,品至佛跳墙(正佳广场店),品至佛跳墙,non_chicken,,天河区,天河路228号正佳广场B1层(体育中心地铁站出入口旁),050100,餐饮服务;中餐厅;中餐厅,"双人餐,单人餐",113.321602,23.134741
B0K1FYJQMY,文华·新加坡美食(体育东店),文华·新加坡美食,modern,推荐菜,天河区,体育东路138号金利来数码网络大厦二楼,050000,餐饮服务;餐饮相关场所;餐饮相关,"海南鸡,鸡油饭",113.323205,23.14095
B0FFKB7O4B,多喝汤·粤式茶餐(体育东店),多喝汤·粤式茶餐,other_chicken,推荐菜,天河区,体育东路南方证券大厦首层南面05号,050100,餐饮服务;中餐厅;中餐厅,"健脑核桃川芎汤,冬菇蒸鸡,原只椰子炖乌鸡,客家肉,朝鲜松茸炖麻鸭,气血双补汤,满盛焖鸡,烧汁排骨,肉酱拌面,花旗参炖竹丝鸡,花菇鸡腿,菜干炖龙骨,萝卜土猪煲,藤椒鲍菇鸡,藤椒鸡汤粉,汤品,炖汤",113.323595,23.141564
B0FFGHZ9PX,新粤新疆菜(佳兆业广场店),新粤新疆菜,modern,推荐菜,天河区,体育西路191号佳兆业广场3层301自编号302A房,050121|050115,餐饮服务;中餐厅;清真菜馆|餐饮服务;中餐厅;西北菜,"羊肉串,大拌菜,大盘鸡,凉皮,烤羊排,羊杂汤,新疆馕,新疆辣子茄子,手抓饭,馕包肉,新疆凉粉,炝炒莲花白,新疆奶茶,自制酸奶,牛肉,羊肉,新疆大盘鸡,烤包子,风味馕包肉,手抓羊肉,新疆手抓羊排,手抓饭",113.315295,23.142518
B0FFF44LPL,好吃嘴川菜小厨(正佳广场店),好吃嘴川菜小厨,modern,推荐菜,天河区,天河路228号正佳广场M层,050300,餐饮服务;快餐厅;快餐厅,"辣子鸡,毛血旺,肥肠,鸡肉",113.321035,23.135002
B0LRCHGARU,及第粉·广州非遗沙河粉(体育东路店),及第粉·广州非遗沙河粉,non_chicken,,天河区,体育东路华阳街55号一楼自编2号,050100,餐饮服务;中餐厅;中餐厅,"及第/瘦肉汤,及第/瘦肉汤粉,招牌捞手工沙河粉,营养早餐",113.324319,23.14189
B0LR15T2LF,東洞·烤肉小馆(广州首店),東洞·烤肉小馆,other_chicken,推荐菜,天河区,天河南一路214号天环广场西塔L2层L202a-b(去茶山对面),050100,餐饮服务;中餐厅;中餐厅,"韩式辣鸡爪,海鲜汤,熔岩鸡蛋糕,烤肉",113.318627,23.135359
B0L3OO0B5R,好利来(天河城购物中心店),好利来,non_chicken,,天河区,天河路208号天河城购物中心负一层B118号,050800,餐饮服务;糕饼店;糕饼店,"生日蛋糕,芋泥",113.317167,23.134729
B0H6TM5C3P,达美乐比萨(天河路分店),达美乐比萨,other_chicken,推荐菜,天河区,天河路123号购书中心一层,050300,餐饮服务;快餐厅;快餐厅,"金尊猫山王榴莲多多比萨,照烧风味牛肉土豆比萨,意大利雪球芝士多肉多芝比萨,新加坡砂煲风味腊肠鸡肉比萨,呼伦贝尔羔羊排,经典意式肉酱比萨,金枪鱼海鲜荟萃比萨,黑松露风味菌菇鸡肉比萨,苏丹王榴莲多多给荔比萨,嫩滋肋眼牛排,芝士焗烤嫩汁三文鱼,香甜双虾菠萝比萨,英式惠灵顿菲力牛排比萨,可可熔岩芝士流心卷边,马德里风情牛腩大虾比萨,托斯卡纳风情芝浓三文鱼比萨,冬日暖饮,火山饼底,经典大阪烧风味海陆比萨,西西里风情尊牛多多笋鲜比萨,可可火山饼底,苏丹王榴莲红毛丹比萨,美式豪情牛肉培根菠萝比萨,双人餐,披萨,比萨",113.315291,23.13714
B0FFJHO04R,东川饭局(体育西店),东川饭局,traditional,推荐菜,天河区,体育西路75号(体育西路地铁站A口步行100米),050000,餐饮服务;餐饮相关场所;餐饮相关,"手撕鸡,鸡皮,堂食,猪肉",113.315481,23.134425
B0FFIGRVGL,遇见小面(正佳店),遇见小面,modern,推荐菜,天河区,天河路正佳广场B1-010铺(正佳西门扶手电梯负一层右测),050100,餐饮服务;中餐厅;中餐厅,"阳光番茄牛肉面,脆皮半只鸡麻辣小面,内蒙古羔羊羊肉串(3串),酥脆鸡排(1块),川味酸菜牛肉面,酸菜卤肉饭,酥掉渣芝麻烧饼(1个),金碗酸辣粉,脆皮半只鸡阳光番茄汤面,酸菜卤肉面,老麻抄手,爆浆豆腐串(2串),琥珀冰粉,葱酥骨汤抄手,白玉厚椰乳,秘制脆皮半只鸡,销魂擂椒卤肉面,酸辣粉,小面,面食,鸡肉,牛肉",113.321477,23.134733
B0FFHNDGP1,燊记雷州鸭仔饭(广利路店),燊记雷州鸭仔饭,traditional,推荐菜,天河区,体育西路广利路71号101之五,050100,餐饮服务;中餐厅;中餐厅,"招牌,手撕鸡,芋头,鸭肉,烧腊,堂食",113.315256,23.133229
B0FFG5BDRB,大周烧鹅(天河街店),大周烧鹅,traditional,推荐菜,天河区,体育西路81号(体育西路地铁站E口步行190米),050100,餐饮服务;中餐厅;中餐厅,"手撕鸡,烧鹅",113.315516,23.134801
B0LRZ529RT,开饭季社区厨房,开饭季社区厨房,modern,推荐菜,天河区,南方证券大厦东门旁,050100,餐饮服务;中餐厅;中餐厅,"辣子鸡丁,鸟蛋红烧肉,辣椒炒肉糍粑鱼,老坛酸菜鱼,恩施小土豆,辣椒炒肉",113.324217,23.141935
B0LBFUU3KH,山野边云南生汤米线(广州首店),山野边云南生汤米线,non_chicken,,天河区,体育西路75号山野边云南生烫米线,050100,餐饮服务;中餐厅;中餐厅,单人餐,113.315869,23.134399
B0L6ACMLIC,肥豚肉骨茶,肥豚肉骨茶,non_chicken,,天河区,体育东路37号天宝大厦F2层,050200,餐饮服务;外国餐厅;外国餐厅,肉骨茶,113.321907,23.133371
B0L1NZWEX0,麦田归来·四季轻食(购书中心店),麦田归来·四季轻食,non_chicken,,天河区,天河路123号B1层B09号,050000,餐饮服务;餐饮相关场所;餐饮相关,双人餐,113.315195,23.136839
B0L0UZV9LP,香香(香料咖喱屋),香香,non_chicken,,天河区,天河南一路天河南一路小区,050000,餐饮服务;餐饮相关场所;餐饮相关,双人餐,113.321673,23.132921
B0KGPL448Q,九朵云·现烤面包·现打牛奶(天河南店),九朵云·现烤面包·现打牛奶,non_chicken,,天河区,六运小区(体育西路地铁站B口步行190米),050800,餐饮服务;糕饼店;糕饼店,"三明治,下午茶,现烤面包,麻薯",113.318727,23.132888
B0K3ZUGDSS,焗姥爷(正佳广场店),焗姥爷,non_chicken,,天河区,正佳广场负一楼焗姥爷,050100,餐饮服务;中餐厅;中餐厅,,113.321602,23.134741
B0GKX5FC5N,gaga(万菱汇店),gaga,other_chicken,推荐菜,天河区,天河路230号万菱汇L1层22铺,050201,餐饮服务;外国餐厅;西餐厅(综合风味),"香辣鸡翅,精选Gaga牛肉沙拉,肉酱意粉,gaga鲜果茶系列,Brunch系列,小资组合,鲜果茶,gaga超级沙拉,招牌菜,蒜香辣味海鲜面,套餐,薯条,提拉米苏,堂食",113.323762,23.135317
B0FFM9BXC1,糯米师兄(天河南步行街店),糯米师兄,other_chicken,推荐菜,天河区,天河南一路100-102-A号,050000,餐饮服务;餐饮相关场所;餐饮相关,"下午茶,小吃街,鸡翅,紫薯糯米鸡",113.321148,23.13341
B0FFJI2WVJ,粤海喜来登酒店·&More大堂吧,粤海喜来登酒店·&More大堂吧,other_chicken,推荐菜,天河区,天河路208号天河城西塔粤海喜来登酒店1层,050000,餐饮服务;餐饮相关场所;餐饮相关,"烧生蚝,牛扒,生蚝,墨西哥卷,寿司,烧羊架,鲜榨胡萝卜汁,布丁,三文鱼,芝士蛋糕,葡式辣大虾,羊排,巧克力甜甜圈,冰淇淋,马卡龙,雪糕,蜜汁鸡肉串,水果,西米露,鱼蛋面,下午茶,双人餐,薯条",113.316675,23.135297
B0FFHF6BML,西华美食品(体育西店),西华美食品,traditional,推荐菜,天河区,体育西路75号(体育西路地铁站A口步行100米),050300,餐饮服务;快餐厅;快餐厅,"烧肉,烧鸭,白切鸡,烧味",113.315466,23.134423
B0FFFP1QC6,稻禾乡里土菜,稻禾乡里土菜,non_chicken,,天河区,天河路190号首层(体育西路地铁站E口步行200米),050100,餐饮服务;中餐厅;中餐厅,土菜,113.314962,23.135261
B0FFF9KASW,荔雅图Li Chateau(正佳广场店),荔雅图LiChateau,other_chicken,推荐菜,天河区,天河路228号正佳广场万豪酒店正门左手边电梯B1层,050201,餐饮服务;外国餐厅;西餐厅(综合风味),"鹅肝双吃,经典凯撒沙拉配鸡肉,黑松露烩饭,碳烤澳大利亚西冷,焦糖布丁,油封鸭腿,烟熏三文鱼沙拉,黑松露鮮蘑菇濃湯,法式芝士蛋糕,烤银鳕鱼配八爪鱼,提拉米蘇,黑松露鹅肝烩饭,低温慢煮法国春鸡,扇贝两吃配鱼子酱,m9牛扒,牛肉,意面,生蚝",113.321602,23.134722
B0014244Y8,大家乐(天河城店),大家乐,modern,推荐菜,天河区,天河路208号天河城购物中心第六层611号商铺,050306,餐饮服务;快餐厅;大家乐,"重量级西冷牛扒,法式烧春鸡,烧春鸡,猪颈肉拼肉沫茄子饭,壹哥厚切猪扒饭,海南鸡饭,叉烧拼油鸡,一哥咖喱鸡扒饭,咖喱牛腩,一哥厚切焗猪扒饭,鸡肉,下午茶,双人餐",113.31688,23.134788
B00141V5S6,金碗时尚茶餐厅(六运小区店),金碗时尚茶餐厅,traditional,推荐菜,天河区,天河南一路六运一街27号,050305,餐饮服务;快餐厅;茶餐厅,"虾仁,豉油鸡",113.318358,23.132811
B0HKUSUW72,猫抓烤肉(正佳广场店)(暂停营业),猫抓烤肉,modern,推荐菜,天河区,天河路228号正佳广场F5,050100,餐饮服务;中餐厅;中餐厅,"猫抓泡椒肥牛,洋葱牛小粒,猫爪焦糖布丁,猫抓全牛拼,喵宇宙炸鸡块,水果雪花脆花牛,猫抓藤椒鸡,烤肉,牛肉,鸡肉",113.321973,23.13473
B0FFF35AYJ,凤园椰珍·椰子鸡火锅(天河南店),凤园椰珍·椰子鸡火锅,modern,招牌,天河区,天河南二路34号(石牌桥地铁站B口步行180米),050100,餐饮服务;中餐厅;中餐厅,"竹笙,南瓜,海南配料,娃娃菜,海南红米炒饭,菠菜,椰子鸡,海南小马蹄,煲仔饭,西米糕,竹笙椰子鸡,椰皇炖蛋,鸡肉,双人餐",113.326686,23.134102
B0J24L6WDK,三更记猪肚鸡.椰子鸡(岗顶店),三更记猪肚鸡.椰子鸡,traditional,招牌,天河区,石牌西路1号尚品天河美食广场,050000,餐饮服务;餐饮相关场所;餐饮相关,"双人餐,鸡肉,猪肚鸡煲,煲仔饭,瓦煲腊味饭",113.332634,23.135837
B0KKT5VT1P,蒸山野阳山鸡·脆肉鲩·冬瓜盅火锅(天河南店),蒸山野阳山鸡·脆肉鲩·冬瓜盅火锅,traditional,招牌,天河区,天河南二路19、21号宏发大厦东门2楼229号铺(友会日式隔壁),050117,餐饮服务;中餐厅;火锅店,鸡肉,113.326834,23.134711
B0I39Z188J,台客盐酥鸡(华康小区店),台客盐酥鸡,other_chicken,招牌,天河区,华康街24-36号112铺,050101,餐饮服务;中餐厅;综合酒楼,"珍珠奶茶,臭豆腐,卤肉饭,泡菜,盐酥鸡,香肠",113.32614,23.140499
B0FFIGTFOV,椰客·海南椰子鸡(天河万菱汇店),椰客·海南椰子鸡,modern,招牌,天河区,天河路232号万菱汇L3楼43-45号,050100,餐饮服务;中餐厅;中餐厅,"豆黄金鲜腐竹,竹笙鲜菌椰子鸡,安格斯肥牛,手打虾滑,香糯椰子船,椰子水汤底,木瓜花胶椰子鸡,一人酸辣椰奶肥牛,一人木瓜花胶椰子鸡,牛肉,鸡肉,肥牛",113.324708,23.135448
B0FFKR6ZK4,牛扒先生(岗顶店),牛扒先生,other_chicken,推荐菜,天河区,天河路598号百脑汇5楼(地铁3号线岗顶站C出口),050200,餐饮服务;外国餐厅;外国餐厅,"韩式泡菜炒饭,奥利奥鲜奶冻,原切谷饲雪花牛扒,带骨西冷牛扒,谷饲无骨牛小扒,香煎奥尔良鸡腿扒,香草牛扒,火焰牛扒,经典意大利肉酱面,谷饲菲力牛扒,牛肉,牛扒,双人餐,牛排,薯条",113.33357,23.136913
B0IDPRSKR2,塔斯汀中国汉堡(广州市天河石牌店),塔斯汀中国汉堡,non_chicken,,天河区,石牌西路37号之五1楼自编1,050300,餐饮服务;快餐厅;快餐厅,"汉堡,中国汉堡,薯条",113.332655,23.134316
B0LR17SXK1,叹佬鸡煲(天河南二路店),叹佬鸡煲,other_chicken,招牌,天河区,天河南二路33号万潮汇二层2C01-2C17,050100,餐饮服务;中餐厅;中餐厅,,113.327341,23.134516
B0FFH11D66,西域私房牛肉面·盖浇饭·新疆大盘鸡(岗顶店),西域私房牛肉面·盖浇饭·新疆大盘鸡,modern,招牌,天河区,龙口西路34号(龙祥酒店旁边),050121,餐饮服务;中餐厅;清真菜馆,"盖浇饭,新疆大盘鸡",113.332125,23.137585
B0K1O70JCI,老香港炸鸡(石牌店),老香港炸鸡,modern,招牌,天河区,石牌西路1、3、5、7号三楼自编c13,050000,餐饮服务;餐饮相关场所;餐饮相关,炸鸡,113.33273,23.136116
B0J64OW60G,孙氏醉凤仙手撕烤鸭·烤鸡(石牌店),孙氏醉凤仙手撕烤鸭·烤鸡,modern,招牌,天河区,石牌西街东园小区东区(岗顶地铁站C口步行310米),050000,餐饮服务;餐饮相关场所;餐饮相关,"手撕烤鸭,烤鸡",113.333034,23.135499
B0FFKSAZOP,中国沙县黄焖鸡(石牌桥店),中国沙县黄焖鸡,modern,招牌,天河区,天河南二路10-3号(石牌桥地铁站A口步行320米),050300,餐饮服务;快餐厅;快餐厅,黄焖鸡,113.325319,23.1341
B0MGNRQUUC,炸鸡翁,炸鸡翁,modern,招牌,天河区,阳光家园(岗顶地铁站C口步行50米),050300,餐饮服务;快餐厅;快餐厅,炸鸡,113.333977,23.137068
B0JG4MAG9L,湛江白切鸡(太古汇店),湛江白切鸡,traditional,招牌,天河区,天河路371号隆德大厦B1层(石牌桥地铁站D口旁),050100,餐饮服务;中餐厅;中餐厅,,113.32535,23.136413
B0FFHTU2HF,华莱士·全鸡汉堡(广州天河石牌),华莱士·全鸡汉堡,modern,招牌,天河区,逢源大街20号之一自编101铺,050300,餐饮服务;快餐厅;快餐厅,"汉堡,鸡肉,宵夜,双人餐,下午茶,单人餐,炸鸡",113.333408,23.134389
B0LGK1MDHY,翠凤鸣·湛江鸡饭(颐高广场店),翠凤鸣·湛江鸡饭,traditional,招牌,天河区,天河路490号颐高广场3层L3-04号,050100,餐饮服务;中餐厅;中餐厅,,113.329541,23.135505
B0FFL7CTON,2颗鸡蛋煎饼(天娱广场店),2颗鸡蛋煎饼,other_chicken,招牌,天河区,天河路621-625号天娱广场F1层135,050300,餐饮服务;快餐厅;快餐厅,"芝士,牛肉",113.334533,23.138322
B0H1OLUMK5,麦达汉堡炸鸡(石牌店),麦达汉堡炸鸡,modern,招牌,天河区,石牌西河大街22号101(岗顶地铁站C口步行450米),050300,餐饮服务;快餐厅;快餐厅,汉堡炸鸡,113.334197,23.135188
B0KUH54HL2,Royal cheese皇家芝士炸鸡(石牌店),Royalcheese皇家芝士炸鸡,modern,招牌,天河区,石牌逢源大街44号105,050300,餐饮服务;快餐厅;快餐厅,单人餐,113.333462,23.133261
B00141L0YV,华辉拉肠(天河南店),华辉拉肠,non_chicken,,天河区,天河南二路24号(石牌桥地铁站A口步行280米),050000,餐饮服务;餐饮相关场所;餐饮相关,"牛肉,单人餐",113.325659,23.134161
B0FFLOERO1,益群隆江猪脚饭(龙口西路店),益群隆江猪脚饭,traditional,推荐菜,天河区,龙口西路56号,050000,餐饮服务;餐饮相关场所;餐饮相关,"蜜汁叉烧饭,靓米饭,大份猪脚饭拼猪蹄（脚尖）,牛筋丸汤面,经典猪脚饭,招牌隆江猪脚拼脆皮烧鸭板,潮汕肉卷饭,猪脚叉烧饭,白切鸡饭,猪耳饭,五花肉饭,牛腩汤饭,猪蹄加四点筋饭,酱油鸡饭,广式卤鸡腿盖饭,排骨汤饭,排骨汤面,鸡腿饭,明炉烧鸭饭,猪脚拼肉卷饭,香炸鸡排饭,猪脚鸡排饭,单人餐",113.331478,23.138484
B0LDTX88SW,清远鸡·鲜切·自助火锅,清远鸡·鲜切·自助火锅,traditional,招牌,天河区,天河路603号莱福广场(岗顶地铁站A口步行100米),050117,餐饮服务;中餐厅;火锅店,自助火锅,113.333383,23.137547
B0KAHY0FHB,燊记雷州鸭仔饭(龙口西店),燊记雷州鸭仔饭,traditional,推荐菜,天河区,龙苑大厦(岗顶地铁站A口步行290米),050000,餐饮服务;餐饮相关场所;餐饮相关,"汤饭,盐焗鸡,烧鸭",113.332064,23.137355
B0L33Z9DVE,鱼你在一起(壬丰大厦店),鱼你在一起,non_chicken,,天河区,天河路490号颐高广场3楼,050000,餐饮服务;餐饮相关场所;餐饮相关,双人餐,113.32973,23.135405
B0L3YUIFAP,客铭轩·臻品客家菜(天娱店),客铭轩·臻品客家菜,non_chicken,,天河区,天河路621-625号天娱广场4层415,050103,餐饮服务;中餐厅;广东菜(粤菜),"客家菜,特色小吃",113.334554,23.138282
B0K21DRB8D,富丰食品湛江白切鸡(颐高店),富丰食品湛江白切鸡,traditional,招牌,天河区,天河路494号壬丰大厦F3层,050000,餐饮服务;餐饮相关场所;餐饮相关,,113.329643,23.135544
B0MGSDLUNO,城市农庄(岗顶店),城市农庄,traditional,推荐菜,天河区,天河路611号4栋一楼,050118,餐饮服务;中餐厅;特色/地方风味餐厅,"菌拼盘,清远鸡粥,生态甲鱼煲,双人餐",113.334082,23.137896
B0M6ACYORI,369酱肉手工水饺,369酱肉手工水饺,non_chicken,,天河区,龙苑大厦(岗顶地铁站A口步行220米),050100,餐饮服务;中餐厅;中餐厅,双人餐,113.332655,23.137572
B0LDR6U4DC,LESHU·乐叔钵钵鸡(冷热串串·麻辣串串),LESHU·乐叔钵钵鸡,other_chicken,招牌,天河区,石牌西路与石牌西横街交叉口东180米,050100,餐饮服务;中餐厅;中餐厅,钵钵鸡,113.334182,23.134447
B0J6GAHFYV,GABU尕布·新疆米粉(百脑汇店),GABU尕布·新疆米粉,other_chicken,推荐菜,天河区,百脑汇科技大厦A座6层,050000,餐饮服务;餐饮相关场所;餐饮相关,"酱香鸡肉炒米粉,原始羊肉手抓饭,新疆椒麻鸡,手抓精品羊排,酱香鱼排炒米粉,新疆炒米粉,牛肉,泡菜,米粉,新疆炒米粉,手抓饭,原始羊肉抓饭,酱香鸡肉炒米粉",113.333472,23.136676
B0L0HPPQZX,沂蒙山炒鸡(天河区店),沂蒙山炒鸡,other_chicken,招牌,天河区,龙口中路154-160号天逸大厦,050100,餐饮服务;中餐厅;中餐厅,,113.33432,23.142044
B0MBMY6ET4,食多多黄焖鸡酸菜鱼,食多多黄焖鸡酸菜鱼,modern,招牌,天河区,龙口中路154-160号天逸大厦,050000,餐饮服务;餐饮相关场所;餐饮相关,,113.334182,23.141894
B0LUKHUATX,津轩阁草鸡蛋蛋糕,津轩阁草鸡蛋蛋糕,other_chicken,招牌,天河区,天河路603号莱福广场(岗顶地铁站A口步行130米),050800,餐饮服务;糕饼店;糕饼店,,113.333334,23.137497
B0LKJP0DFW,爆汁鸡丝凉面,爆汁鸡丝凉面,other_chicken,招牌,天河区,天河路383号太古汇(石牌桥地铁站出入口步行70米),050100,餐饮服务;中餐厅;中餐厅,鸡丝凉面,113.326847,23.13646
B0FFI9DQTY,麦当劳(太古汇店),麦当劳,non_chicken,,天河区,天河路383号太古汇商场裙楼地铁上M层M54单元,050302,餐饮服务;快餐厅;麦当劳,"双人餐,薯条",113.326747,23.13706
B0FFGDXIBP,麦当劳(广州天河路第二分店),麦当劳,other_chicken,推荐菜,天河区,天河路490号壬丰大厦2层188A、109、203,050302,餐饮服务;快餐厅;麦当劳,"人气美味尽享套餐,原味板烧鸡腿麦满分组合,板烧美味三件套,家有金桶（脆鸡版）,麦辣美味三件套,麦当劳超值嗨餐,（2-3人餐）,大脆鸡扒麦满分组合,可乐鸡翅,家有金桶（汉堡版）,麦辣鸡腿堡,安格斯系列,巨无霸汉堡,下午茶,双人餐,薯条,汉堡",113.329184,23.135313
B00140NHRG,麦当劳(总统大酒店店),麦当劳,other_chicken,推荐菜,天河区,天河路518号南方电脑城2层,050302,餐饮服务;快餐厅;麦当劳,"烤芝士酱薯条,甜筒雪糕,中薯原板烧鸡腿堡套餐,大拿铁,麦辣鸡腿堡超值午餐,巨无霸大套餐,墨西哥烧烤风味鸡腿堡,芒果派,可口可乐,香蕉派,香芋麦旋风,芒果雪冰,桃花新地,板烧鸡腿早晨全餐配鲜煮咖啡,杂果缤纷奇乐酷,双人餐,汉堡",113.332796,23.136556
B0LU4UXNKH,麦当劳(龙苑大厦店),麦当劳,non_chicken,,天河区,龙苑大厦(岗顶地铁站A口步行190米),050302,餐饮服务;快餐厅;麦当劳,双人餐,113.332553,23.137086
B0L6PM83LT,麦当劳(天河南二路分店),麦当劳,non_chicken,,天河区,天河南二路41号(石牌桥地铁站B口步行130米),050302,餐饮服务;快餐厅;麦当劳,双人餐,113.327128,23.134407
B0K6NU18BQ,程大腕烤肉(天河南店),程大腕烤肉,non_chicken,,天河区,宏发大厦南门旁(石牌桥地铁站B口步行170米),050200,餐饮服务;外国餐厅;外国餐厅,烤肉,113.326242,23.134497
B0J35HX1KC,東園·广州味·点心与烧鹅(天娱广场西塔楼店),東園·广州味·点心与烧鹅,traditional,推荐菜,天河区,天河路621号天娱广场西塔楼F11层,050103,餐饮服务;中餐厅;广东菜(粤菜),"盘龙东星斑,红芭乐青梅焗罗氏虾,避风塘炒帝王蟹,酒香猛火啫腰润,必点烧卖,珍味白切鸡,炸榄菜波士顿龙虾,东园果木脆皮烧鹅,双人餐,点心,牛肉,烧鹅,真的菠萝油,薄荷黑金叉烧,流沙包,后街鹅汁濑粉,干炒牛河,东园果木烧鹅,缤纷四季咕噜肉",113.334215,23.137829
B0L11RMBPO,谢宝林烤肉拌饭,谢宝林烤肉拌饭,non_chicken,,天河区,石牌西路与天河路辅路交叉口南60米,050300,餐饮服务;快餐厅;快餐厅,"双人餐,烤肉拌饭",113.332585,23.135999
B0FFK6CALE,煲仔正·广州老字号煲仔饭(石牌西店),煲仔正·广州老字号煲仔饭,other_chicken,推荐菜,天河区,东园小区西区,050000,餐饮服务;餐饮相关场所;餐饮相关,"堂食,鸡肉,煲仔饭,金牌腊味煲仔饭",113.332656,23.13435
B0KUCO6NYT,门堂啫啫煲(天河南·黑金冠店),门堂啫啫煲,traditional,推荐菜,天河区,天河南二路1921号宏发大厦1层北门,050100,餐饮服务;中餐厅;中餐厅,"黄椒酱焗黄花鱼,啫啫牛杂,海鲜蚝仔烙,五彩椒泡菜啫猪颈肉,紫苏豉椒啫生肠（微辣),咸蛋黄啫虾,盐焗罗氏虾,沙姜啫啫舌,腊味煲仔饭,藤椒啫牛蛙(微麻）,金牌啫大肠,啫黄鳝,虾仁白贝粉丝煲（带汤汁）,香辣啫虎皮凤爪（中微辣）,大澳虾酱啫芥蓝,罗定鱼腐煮海带鱼,九层塔香茅啫牛展,沙姜啫走地鸡,剁椒秋葵啫大虾球,秘汁啫水果木瓜,牛肉,鸡肉,爽脆鱼皮,沙姜啫走地鸡,啫啫煲,腊味煲仔饭",113.326452,23.134677
B0I1HZTNJO,上上席川菜(万菱汇店),上上席川菜,non_chicken,,天河区,天河路232号万菱汇M层,050102,餐饮服务;中餐厅;四川菜(川菜),,113.324852,23.135429
B0HBFHY7FI,炳胜品味(天河店),炳胜品味,traditional,推荐菜,天河区,天河东路168号1-2楼,050103,餐饮服务;中餐厅;广东菜(粤菜),"脆皮叉烧,豉油皇鹅肠,榴莲酥,豆腐,鱼生,金沙汤圆,虾生,水晶鸡,冷水猪肚,三文鱼生,菠萝包,真味鸡,酱油王鹅肠,刺身,海鲜类,叉烧,烧鹅,宵夜,牛肉,鸡肉,菠萝油,干炒牛河,炳胜真味鸡,辣汁凉拌山坑鲩鱼皮,白切鸡",113.328974,23.137088
B0JAR5ZS1W,炳胜私厨(天河东店),炳胜私厨,traditional,推荐菜,天河区,天河东路178号,050100,餐饮服务;中餐厅;中餐厅,"芋头焖鹅,电饭煲焗土鸡,辣辣地蒸东海小鲜盘,秘制牛肋骨,瑶柱节瓜云吞,松茸花胶烩猴头菇,手撕乳鸽,脆皮黑叉烧,脆皮叉烧,豉油鸡,阿妈豉油鸭,鹅肠,菠萝包,火腿,点心,蟹肉,清蒸海河鲜,私房菜,鲜花椒蒸海钓大黄鱼,红标雪花牛肉黑叉烧,黑松露煲仔饭",113.328869,23.13731
B0IA3RZS7V,食味鲜海鲜蒸汽餐厅(保利中辰广场店),食味鲜海鲜蒸汽餐厅,other_chicken,推荐菜,天河区,龙口西路6号保利中辰广场A座二楼,050119,餐饮服务;中餐厅;海鲜酒楼,"白鳝,游水鲜海柱,像飞碟一样的多宝鱼,农家大扇鸡,爆膏罗氏虾,波士顿龙虾,鲍鱼,小象拔蚌,甜虾（三样起拼）,一只青龙（4两）,花甲,大膏蟹,避风塘珍宝蟹,排骨瑶柱粥底,会钳手的面包蟹,花螺,游水大元贝,琳琅满目的海螺,乳山巨蚝,竹蛏王,罗氏虾",113.331601,23.136791
B0FFGHE53M,点都德(汇胜楼店),点都德,other_chicken,推荐菜,天河区,天河路598号百脑汇大厦四层,050305,餐饮服务;快餐厅;茶餐厅,"鸡油马拉糕,状元及第粥,上汤富村菜心,沙爹蒸金钱肚,青芥炸虾球,金莎红米肠,百合酱蒸凤爪,芫茜牛肉肠,松化鸡蛋挞,鼓油皇三丝炒面,金牌虾饺皇,泰式冰榴莲,金莎海虾红米肠,豉油皇三丝炒面,五色蔬果捞,雪花牛肉饺,麻香无骨鸭掌,香芒夹心椰汁糕,招牌虾饺皇,招牌烧卖,乳鸽,招牌靓油条,荔湾艇仔粥,金腿咸水角,蜜汁叉烧包,明虾蟹子烧卖,凤凰流沙包,特色蒸排骨,生煎韭菜饺,原只椰子炖竹丝鸡汤,金牌靓油条,百合酱蒸风爪,金枕榴莲酥,安格斯黑椒牛仔骨,焦糖冰豆花,凉拌爽口黑木耳,灌汤姜汁小笼包,沙爹金钱肚,潮州蒸粉果,紫薯菓,避风塘芋头糕,柠香牛肉球,招牌陈醋浸凤爪,虾饺,双人餐,点心",113.333426,23.136849
B0FFF67SHL,翠园(太古汇店),翠园,other_chicken,推荐菜,天河区,石牌桥天河东路383太古汇B2层,050103,餐饮服务;中餐厅;广东菜(粤菜),"鲜果拿破仑,九王虾肠粉,虾饺,鲍鱼烧卖,东星斑鱼饺,羊城雀笼点心,叉烧酥,萝卜丝酥,燕窝蛋挞,原只鲍鱼荷叶饭,碧绿带子菜苗,莆鱼烧卖,家乡咸鸡笼,潮州蒸粉果,BB猪,鲜虾肠粉,片皮鸭,烤鸭,干蒸烧麦,点心,豆腐,鸡肉,下午茶,拿破仑,铁板叉烧,老娘菠萝包,煎萝卜糕,原只鲍鱼荷叶饭,鲍鱼糯米鸡,韭黄鲜虾肠粉,鹅肝烧卖拼阿拉斯加蟹钳,鸡蛋甜醋猪脚姜,艇仔粥",113.327503,23.136556
B00141UOSO,Jiang by Chef Fei 江-由辉师傅主理,JiangbyChefFei江-由辉师傅主理,modern,推荐菜,天河区,天河路389号3层(石牌桥地铁站出入口步行210米),050103,餐饮服务;中餐厅;广东菜(粤菜),"鲍鱼饭,黑松露鹅肝炒饭,白切文昌鸡,窝烧鲜虾牛仔排,岭南风范天鹅酥,蓝莓雪媚娘,笋尖虾饺皇,头抽炒秋葵黑豚肉,淮山蓝莓,云来焖粗斋,肉饼,点心,鸡肉,脆皮红烧乳鸽,烤乳猪,鱼子酱鸿运乳猪,糯米鸡,创意鲜果咕噜肉",113.327785,23.137195
B0LUMZBL1K,羊城铁饭碗,羊城铁饭碗,other_chicken,推荐菜,天河区,天河南二路6号之三万菱汇后街,050100,餐饮服务;中餐厅;中餐厅,"怀旧油条牛肉,豉油皇炒大虾皇,夜来香白贝鸡蛋汤,五指毛桃煎焗鲜黄油鸡,五指毛桃煎焗鸡,菊花瘦肉汤,爆炒脆肉鲩鱼片,五指毛桃蒸鲜黄油鸡,鸡蛋汤,蒸鲜",113.325047,23.134105
B0L3AOZHBG,流浪泡泡·破破烂烂的烤肉店(广州天河天娱广场店),流浪泡泡·破破烂烂的烤肉店,modern,推荐菜,天河区,天娱广场负一楼友见地B13-14铺,050000,餐饮服务;餐饮相关场所;餐饮相关,炸鸡,113.334534,23.13828
B0KUL5GRR8,乌苏里江生态大鱼坊铁锅炖,乌苏里江生态大鱼坊铁锅炖,other_chicken,推荐菜,天河区,天河南二路33号康平大厦首层,050100,餐饮服务;中餐厅;中餐厅,"铁锅炖大鹅（1只）,花马哈,农家笨晒土豆干,铁锅炖鳕鱼大青鱼（3斤））,乌苏里江青根鱼,家常凉菜,小兴安岭榛蘑,铁锅焖雪花黑猪排（大份））,自制辣白菜,自家笨熬皮冻,乌苏里江鳌花鱼,乌苏里江胖鱼头,俄罗斯远东鳕鱼,小兴安岭松树伞蘑,农家笨晒豆角干,鸡蛋酱大丰收,铁锅炖排骨焖鸡（大份））,黑龙江林蛙,乌苏里江大白鱼,铁锅炖大鹅（小份）,铁锅炖排骨鸡,鱼杂（鱼肚鱼泡鱼籽））,乌苏里江鳇鱼,铁锅炖大鹅,铁锅炖,招牌铁锅炖大鱼,铁锅炖大鹅,铁锅炖鱼",113.327516,23.134371
B0K3XU5U2K,炊事连营老兵餐厅,炊事连营老兵餐厅,other_chicken,推荐菜,天河区,天河路518号地中海壹荟一楼008铺,050100,餐饮服务;中餐厅;中餐厅,"避风塘海虾,豉汁蒸白蟮,雷州叶搭饼,白切湛江扇鸡",113.331428,23.136066
B0IRUD1WDO,禄鼎记(石牌桥店),禄鼎记,modern,推荐菜,天河区,天河路236广场2层236号,050100,餐饮服务;中餐厅;中餐厅,"鸳鸯酸菜鱼,香辣双拼,红白,大海爆炒肥肠,招牌原味酸菜鱼,香辣干煸四季豆,二师兄辣子鸡,金牌海陆标兵,黄金蒜香酸菜鱼,三味茄子,椒然双拼,双人餐,酸菜鱼,酸菜鱼",113.326668,23.135268
B0FFL5KHJN,廖昆玉·三百多年客家菜(保利中辰店),廖昆玉·三百多年客家菜,traditional,推荐菜,天河区,龙口西路3号保利中辰广场二楼,050103,餐饮服务;中餐厅;广东菜(粤菜),"炒饭,豆腐,客家菜,猪肉,鸡肉,羊肉,客家盐焗鸡",113.331652,23.136804
B00141IJP8,粤顺粤德·十六年粤菜品牌(天河店),粤顺粤德·十六年粤菜品牌,other_chicken,推荐菜,天河区,"天河南二路19-21号首层07单元、二层208,209,210,211,212单元",050108|050103,餐饮服务;中餐厅;湖南菜(湘菜)|餐饮服务;中餐厅;广东菜(粤菜),"莲藕饼,乳鸽,古法蒸鱼头,咸湿鸡,烧春鸡,煎焗鱼头,水库大头鱼,拆鱼煲,上汤豆苗,炸牛奶,大盆鱼,咸鱼茄子煲,韭菜花炒河虾,一鱼两吃,生炒鲮鱼球,大闸蟹,生蚝,家常菜",113.326829,23.134554
B0JK97B4T0,霸碗盖码饭(广州天河百脑汇店),霸碗盖码饭,non_chicken,,天河区,天河路598号百脑汇5F(5Y17),050100,餐饮服务;中餐厅;中餐厅,"单人餐,盖码饭",113.333805,23.136815
B0H0B91246,花椒笑成都小馆(百脑汇店),花椒笑成都小馆,modern,推荐菜,天河区,天河路592号百脑汇科技大厦A座F6层,050102,餐饮服务;中餐厅;四川菜(川菜),"肥肠,红糖糍粑,辣子鸡",113.333394,23.13672
B00141YK77,丽柏国际酒店汤厨一品食府(岗顶店),丽柏国际酒店汤厨一品食府,traditional,推荐菜,天河区,龙口东横街28号丽柏国际酒店3层,050100,餐饮服务;中餐厅;中餐厅,"白切鸡,点心,牛杂,牛肉丸,干炒牛河",113.333741,23.139266
B0LUMRGQY0,张小晋大同刀削面,张小晋大同刀削面,non_chicken,,天河区,天河东路110号首层,050100,餐饮服务;中餐厅;中餐厅,"单人餐,肉夹馍",113.329065,23.134805
B0FFG4D0IL,湛江安铺鸭仔饭(石牌店),湛江安铺鸭仔饭,traditional,推荐菜,天河区,石牌西路与海欣街交叉口东北120米,050100,餐饮服务;中餐厅;中餐厅,"鸡肉,白切鸡,芋头,鸭肉",113.333473,23.133036
B0LB7KEFXF,鸭元元·现捞卤味(岗顶店),鸭元元·现捞卤味,non_chicken,,天河区,天河路518号地中海壹荟1-101铺(岗顶地铁站C口步行240米),050000,餐饮服务;餐饮相关场所;餐饮相关,现捞,113.331537,23.136072
B0LA499AXW,大勇阪·大阪叔叔·大阪烧匠造所(天娱友见地店),大勇阪·大阪叔叔·大阪烧匠造所,non_chicken,,天河区,天河路621号天娱广场西塔楼B1层(岗顶地铁站A口旁),050202,餐饮服务;外国餐厅;日本料理,单人餐,113.334531,23.138295
B0L3XD0ZFU,徐大川剁椒猪脚饭(尚品天河店),徐大川剁椒猪脚饭,non_chicken,,天河区,石牌街道石牌西路1、3、5、7号一楼自编A28,050300,餐饮服务;快餐厅;快餐厅,"堂食,猪脚饭,单人餐",113.332735,23.135999
B0L2R5NDM1,飞记梅州盐焗店(尚品天河店),飞记梅州盐焗店,non_chicken,,天河区,"石牌街道石牌西路1,3,5,7号一楼自编A03-1",050100,餐饮服务;中餐厅;中餐厅,,113.332606,23.135922
B0L2MPY5Q2,达美乐比萨(广州天河百脑汇店),达美乐比萨,other_chicken,推荐菜,天河区,天河路598号101百脑汇第1层,050300,餐饮服务;快餐厅;快餐厅,"西西里风情尊牛多多笋鲜比萨,可可火山饼底,苏丹王榴莲红毛丹比萨,美式豪情牛肉培根菠萝比萨,马德里风情牛腩大虾比萨,托斯卡纳风情芝浓三文鱼比萨,冬日暖饮,火山饼底,香甜双虾菠萝比萨,英式惠灵顿菲力牛排比萨,可可熔岩芝士流心卷边,金尊猫山王榴莲多多比萨,照烧风味牛肉土豆比萨,意大利雪球芝士多肉多芝比萨,新加坡砂煲风味腊肠鸡肉比萨,呼伦贝尔羔羊排,黑松露风味菌菇鸡肉比萨,苏丹王榴莲多多给荔比萨,嫩滋肋眼牛排,芝士焗烤嫩汁三文鱼,双人餐",113.333951,23.13673
B0KKD7YSUI,乖妹妹·干盆盆·成都火锅冒菜(岗顶店),乖妹妹·干盆盆·成都火锅冒菜,non_chicken,,天河区,"石牌西路1,3,5,7号一楼自编A22-2",050000,餐饮服务;餐饮相关场所;餐饮相关,"双人餐,单人餐",113.332769,23.136226
B0K3S7M77O,小满粥档,小满粥档,non_chicken,,天河区,石牌西路怡东电脑城首层地铺七-1,050000,餐饮服务;餐饮相关场所;餐饮相关,"三道菜,砂锅粥,猪杂粥",113.332718,23.135635
B0K2BCFNTK,尊宝比萨(岗顶店),尊宝比萨,modern,推荐菜,天河区,"龙口西路天龙街1,6号103房自编之二号铺",050201|050205,餐饮服务;外国餐厅;西餐厅(综合风味)|餐饮服务;外国餐厅;意式菜品餐厅,"超级豪华比萨,金沙咸蛋黄培根比萨,精选比萨2件奥尔良+榴莲,意大利肉酱面,夏威夷比萨,经典苏丹王榴莲,奥尔良烤鸡,经典苏丹王榴莲比萨,金沙咸蛋黄,8英寸经典苏丹王榴莲比萨,意面,蛋挞,比萨",113.332396,23.137683
B0K0PYKXJ4,遇见小面(龙口西店),遇见小面,modern,推荐菜,天河区,天河路保利中辰广场1楼(广场侧面),050100,餐饮服务;中餐厅;中餐厅,"葱酥骨汤抄手,白玉厚椰乳,秘制脆皮半只鸡,销魂擂椒卤肉面,酥掉渣芝麻烧饼(1个),金碗酸辣粉,脆皮半只鸡阳光番茄汤面,酸菜卤肉面,老麻抄手,爆浆豆腐串(2串),琥珀冰粉,阳光番茄牛肉面,脆皮半只鸡麻辣小面,内蒙古羔羊羊肉串(3串),酥脆鸡排(1块),川味酸菜牛肉面,酸菜卤肉饭,酸辣粉,毛血旺冒菜",113.331411,23.137152
B0JRURWYDB,食尚小碗蒸菜(尚品),食尚小碗蒸菜,non_chicken,,天河区,石牌西路与天河路辅路交叉口东南60米,050100,餐饮服务;中餐厅;中餐厅,,113.332777,23.136089
B0IUCSPWKI,喜姐炸串(石牌西店),喜姐炸串,modern,推荐菜,天河区,天河区石牌街道石牌西路1.3.5.7号一楼自编A09,050000,餐饮服务;餐饮相关场所;餐饮相关,"全家桶,臭豆腐,鸡柳,鸡腿,年糕",113.332654,23.13591
B0IKD9B8TD,袁记云饺(广州市天河区石牌西路店),袁记云饺,non_chicken,,天河区,石牌西路37号之3一楼,050300,餐饮服务;快餐厅;快餐厅,"单人餐,堂食",113.332639,23.134455
B0H2KRCNEG,启程咖啡KOMENCU(天河南店),启程咖啡KOMENCU,modern,推荐菜,天河区,天河南二路20号(石牌桥地铁站B口步行350米),050500,餐饮服务;咖啡厅;咖啡厅,"精品咖啡,椰子鸡",113.325409,23.133862
B0H1UO0K9A,遇见小面(天河东路店),遇见小面,modern,推荐菜,天河区,天河东路161-169号首层自编105-1号(天河东路公交站旁),050000,餐饮服务;餐饮相关场所;餐饮相关,"酥掉渣芝麻烧饼(1个),金碗酸辣粉,脆皮半只鸡阳光番茄汤面,阳光番茄牛肉面,脆皮半只鸡麻辣小面,内蒙古羔羊羊肉串(3串),酥脆鸡排(1块),川味酸菜牛肉面,酸菜卤肉饭,酸菜卤肉面,老麻抄手,爆浆豆腐串(2串),琥珀冰粉,葱酥骨汤抄手,白玉厚椰乳,秘制脆皮半只鸡,销魂擂椒卤肉面,酸辣粉,冰粉",113.327543,23.141042
B0FFKT0VNK,知味园自选快餐(天河东店),知味园自选快餐,modern,推荐菜,天河区,天河东路108号(石牌桥地铁站BRT口步行310米),050300,餐饮服务;快餐厅;快餐厅,"酸菜鱼,自选快餐,辣子鸡",113.329041,23.134709
B0FFJ9HE0P,遇见小面(广武酒店店),遇见小面,modern,推荐菜,天河区,天河路603号101(岗顶A出口往西100米莱福广场一层),050100,餐饮服务;中餐厅;中餐厅,"阳光番茄牛肉面,脆皮半只鸡麻辣小面,内蒙古羔羊羊肉串(3串),酥脆鸡排(1块),川味酸菜牛肉面,酸菜卤肉饭,酥掉渣芝麻烧饼(1个),金碗酸辣粉,脆皮半只鸡阳光番茄汤面,葱酥骨汤抄手,白玉厚椰乳,秘制脆皮半只鸡,销魂擂椒卤肉面,酸菜卤肉面,老麻抄手,爆浆豆腐串(2串),琥珀冰粉,小面,酸辣粉,柠檬茶,葱油饼",113.333563,23.137605
B0FFHBCIOM,尊宝比萨(石牌西店),尊宝比萨,modern,推荐菜,天河区,石牌西路41号之一自编103,050300,餐饮服务;快餐厅;快餐厅,"经典苏丹王榴莲比萨,经典苏丹王榴莲,奥尔良烤鸡,超级豪华比萨,金沙咸蛋黄培根比萨,精选比萨2件奥尔良+榴莲,金沙咸蛋黄,8英寸经典苏丹王榴莲比萨,意大利肉酱面,榴莲披萨,意面,比萨,薯条,牛肉面,披萨,堂食",113.332624,23.134111
B00140NW9R,都城快餐(天河店),都城快餐,traditional,推荐菜,天河区,龙口西路20号龙口小区内(岗顶地铁站A口步行390米),050100,餐饮服务;中餐厅;中餐厅,"牛肉,排骨,玉米汁,肠粉,手撕鸡",113.332004,23.137551
B00140AFP8,肯德基(莱福广场店),肯德基,modern,推荐菜,天河区,莱福广场,050301,餐饮服务;快餐厅;肯德基,"新奥尔良烤腿堡,酵豆浆,超级外送全家桶,芝士蛋帕尼尼,红豆圆奶茶,现磨咖啡-美式,柠檬茶,新奥良腿堡土豆泥餐,小食拼盘,吮味鸡,原味鸡加雪糕,香脆海苔虾,辣腿汉堡,葡塔,鳕鱼条,薯条,汉堡",113.333198,23.137393
B0FFJIY4LF,东川饭局(石牌店)(暂停营业),东川饭局,traditional,推荐菜,天河区,石牌西横街8号之三铺(岗顶地铁站C口步行430米),050100,餐饮服务;中餐厅;中餐厅,"手撕鸡,工作餐",113.33171,23.134659
B0KGMDQV7L,蜀渝拌·重庆凉拌菜((石牌西路店))(暂停营业),蜀渝拌·重庆凉拌菜),non_chicken,,天河区,石牌西路45号之四(岗顶地铁站C口步行470米),050100,餐饮服务;中餐厅;中餐厅,"单人餐,双人餐",113.332635,23.133663
B0KU2S19X9,为食蒸·顺德料理,为食蒸·顺德料理,traditional,推荐菜,番禺区,沙湾镇紫坭村西安路7路86栋,050000,餐饮服务;餐饮相关场所;餐饮相关,"料理,桑拿鸡",113.28012,22.894181
B0I3F91K9O,锋记农家饭店,锋记农家饭店,non_chicken,,番禺区,东安路与村南路交叉口东北180米,050100,餐饮服务;中餐厅;中餐厅,"煲仔饭,番茄酱",113.288253,22.898802
B0HDTAJTXL,佳仪私房菜·农庄·鱼生·烧鸡(榄核店),佳仪私房菜·农庄·鱼生·烧鸡,other_chicken,招牌,南沙区,星海大道与G1501广州绕城高速入口交叉口南200米,050000,餐饮服务;餐饮相关场所;餐饮相关,"烧鸡,私房菜",113.34268,22.861184
B0FFFS62RA,牛庄饭店,牛庄饭店,non_chicken,,南沙区,万安新村下排13号,050100,餐饮服务;中餐厅;中餐厅,"黑椒牛扒,韭菜花炒虾子,萝卜,荷叶蒸双丸,药膳牛骨汤,茶树菇炒面肉,胜瓜炒土鱿,盐焗掌亦,牛血,牛肚,牛肉丸,牛肉,牛皮,牛杂煲,牛心,牛杂,牛尾",113.340494,22.872816
B0JK615CGO,塔斯汀中国汉堡(广州市南沙榄核民生路店),塔斯汀中国汉堡,non_chicken,,南沙区,榄核镇民生路66号之3号,050300,餐饮服务;快餐厅;快餐厅,中国汉堡,113.333395,22.840605
B0KKS1U2JV,大船河鲜,大船河鲜,traditional,推荐菜,南沙区,922乡道与民生路交叉口西140米,050119,餐饮服务;中餐厅;海鲜酒楼,走地鸡,113.33185,22.839975
B0FFFWG2H6,兰州正宗牛肉拉面(镇南路店),兰州正宗牛肉拉面,non_chicken,,南沙区,榄核镇邮局对面,050121,餐饮服务;中餐厅;清真菜馆,,113.334401,22.84102
B0G3SHVGQ3,船民渔村,船民渔村,non_chicken,,南沙区,星海大道,050119,餐饮服务;中餐厅;海鲜酒楼,"特色菜,烧鹅,生蚝,黑叉烧,叉烧包,烧鹅",113.345797,22.878066
B0J37XQVFB,明记阳山鸡,明记阳山鸡,traditional,招牌,南沙区,921乡道与297县道交叉口东40米,050100,餐饮服务;中餐厅;中餐厅,阳山鸡,113.335862,22.846736
B0FFH3M61Z,华莱士·全鸡汉堡(榄核星海小学店),华莱士·全鸡汉堡,modern,招牌,南沙区,民生路与Y922交叉路口北侧(星海小学南侧约50米),050300,餐饮服务;快餐厅;快餐厅,"宵夜,下午茶,双人餐,汉堡,炸鸡,单人餐",113.333138,22.841477
B0FFIPTX9U,淼福猪肚鸡(榄核店),淼福猪肚鸡,traditional,招牌,南沙区,榄核镇蔡新路377号,050100,餐饮服务;中餐厅;中餐厅,"金针菇,腊味煲仔饭,特级肥羊,虾丸,腐竹,胡椒猪肚鸡,包心贡丸,煲仔饭",113.337774,22.834697
B0L3CDJ0RA,华莱士·全鸡汉堡(民生路店),华莱士·全鸡汉堡,other_chicken,招牌,南沙区,民生路与922乡道交叉口东北40米,050300,餐饮服务;快餐厅;快餐厅,,113.333507,22.84028
B0FFGW4XRW,湛江白切鸡鸭仔饭(榄核店),湛江白切鸡鸭仔饭,traditional,招牌,南沙区,蔡新路与民生路交叉口西280米,050100,餐饮服务;中餐厅;中餐厅,鸭仔饭,113.328972,22.834326
B0LGT7YHVP,和顺庄园·食鸽食鸡主题店,和顺庄园·食鸽食鸡主题店,other_chicken,招牌,南沙区,北斗大桥榄核方向第一个红绿灯前行200米,050100,餐饮服务;中餐厅;中餐厅,乳鸽,113.345583,22.880371
B0H06DC03C,黄焖鸡米饭老北京炸酱面(蔡新路店),黄焖鸡米饭老北京炸酱面,modern,招牌,南沙区,蔡新路与民生路交叉口西260米,050300,餐饮服务;快餐厅;快餐厅,黄焖鸡米饭,113.329033,22.834523
B0KR65F6X4,戒嘴鸡爪(榄核店),戒嘴鸡爪,traditional,招牌,南沙区,榄核镇镇南路11号,050000,餐饮服务;餐饮相关场所;餐饮相关,"鸭掌,柠檬无骨鸡爪,酸辣鸡肾,盐焗鸡翅,蒜香鸡爪,鸡爪",113.334732,22.84128
B0HRZ5NXLH,粤加大手撕鸡,粤加大手撕鸡,traditional,招牌,南沙区,顺兴市场兴顺五街,050000,餐饮服务;餐饮相关场所;餐饮相关,,113.339042,22.837062
B0H0JHV28L,连梅鸡爪酱黑鸭(榄核墟场店),连梅鸡爪酱黑鸭,other_chicken,招牌,南沙区,兴顺三街榄核市场,050000,餐饮服务;餐饮相关场所;餐饮相关,鸡爪,113.33864,22.837895
B0H2RA3HW6,卜卜脆炸鸡店,卜卜脆炸鸡店,modern,招牌,南沙区,榄核镇广场路47号圩场内北16号之一,050300,餐饮服务;快餐厅;快餐厅,,113.33887,22.839013
B0JKL556N4,雨打鸡煲,雨打鸡煲,other_chicken,招牌,番禺区,桃源路5号,050100,餐饮服务;中餐厅;中餐厅,"鸡肉,鸡煲",113.325667,22.898323
B0LAVU7KS6,轩然叫花鸡(榄核店),轩然叫花鸡,other_chicken,招牌,南沙区,榄核镇西一街横一街22号,050000,餐饮服务;餐饮相关场所;餐饮相关,叫花鸡,113.329203,22.834224
B0JDJ7LNQO,黄焖鸡米饭(榄核店),黄焖鸡米饭,modern,招牌,南沙区,新地路与上街交叉口西南100米,050100,餐饮服务;中餐厅;中餐厅,黄焖鸡米饭,113.336249,22.842189
B0K025Z7VY,成都柴火鸡,成都柴火鸡,modern,招牌,南沙区,榄核墟场,050100,餐饮服务;中餐厅;中餐厅,,113.339004,22.838149
B0HDHDFH40,权记阳山鸡(西村店),权记阳山鸡,traditional,招牌,番禺区,福北路2号沙湾古镇(西南角),050100,餐饮服务;中餐厅;中餐厅,阳山鸡,113.326002,22.902085
B0LKPSZ2JY,一品阳山鸡,一品阳山鸡,traditional,招牌,南沙区,镇南路9号,050100,餐饮服务;中餐厅;中餐厅,阳山鸡,113.345866,22.83737
B0KR15NHUA,秋盈手撕鸡(榄核市场店),秋盈手撕鸡,traditional,招牌,南沙区,广场路211号顺兴市场,050000,餐饮服务;餐饮相关场所;餐饮相关,手撕鸡,113.338976,22.837059
B0FFLJVBC7,黄焖鸡沙县小吃,黄焖鸡沙县小吃,modern,招牌,南沙区,榄核镇蔡新路繁贵街5号,050100,餐饮服务;中餐厅;中餐厅,黄焖鸡,113.328999,22.834502
B0J6PA05NV,香飘茶创意饮品(汉堡炸鸡奶茶果汁),香飘茶创意饮品,modern,推荐菜,南沙区,民生路188-7号附近,050700|061200,餐饮服务;冷饮店;冷饮店|购物服务;专卖店;专营店,炸鸡汉堡,113.331007,22.834596
B0K2MXV781,豆士啫啫煲,豆士啫啫煲,non_chicken,,番禺区,沙湾镇市良路1173号,050100,餐饮服务;中餐厅;中餐厅,啫啫煲,113.298942,22.901728
B0K6F9SISS,唐记古镇烧鸡,唐记古镇烧鸡,other_chicken,招牌,番禺区,福北路2号沙湾古镇(西南角),050000,餐饮服务;餐饮相关场所;餐饮相关,烧鸡,113.325815,22.901761
B0K2NPJXCO,Bigbear韩国炸鸡,Bigbear韩国炸鸡,modern,招牌,番禺区,福北路2号沙湾古镇内(南侧),050000,餐饮服务;餐饮相关场所;餐饮相关,韩国炸鸡,113.329567,22.901445
B0FFHIC4NN,麦当劳(广场路得来速餐厅),麦当劳,other_chicken,推荐菜,南沙区,榄核镇蔡新璐、广场路A7-2建筑物101-103、121-125与201、220商铺,050302,餐饮服务;快餐厅;麦当劳,"大脆鸡扒麦满分组合,麦辣美味三件套,麦当劳超值嗨餐,（2-3人餐）,人气美味尽享套餐,家有金桶（汉堡版）,板烧美味三件套,可乐鸡翅,原味板烧鸡腿麦满分组合,家有金桶（脆鸡版）,麦辣鸡腿堡,安格斯系列,巨无霸汉堡,汉堡,薯条,双人餐",113.337701,22.833332
B0JRDUBTDJ,万安庄园,万安庄园,traditional,推荐菜,南沙区,榄核镇万安村榄北路平安街68号南400米A101,050100,餐饮服务;中餐厅;中餐厅,"庄园白切靓鸡项,白切鸡",113.344492,22.873133
B0HUJAZJFR,联益砖厂饭堂,联益砖厂饭堂,traditional,推荐菜,南沙区,万安村永安街4-1,050100,餐饮服务;中餐厅;中餐厅,"特色菜,鱼鲜,白切鸡,烧鹅",113.341242,22.870477
B0FFH8UEW2,怪鱼农庄,怪鱼农庄,non_chicken,,南沙区,918乡道伯荣食品公司旁,050000,餐饮服务;餐饮相关场所;餐饮相关,,113.309072,22.875096
B0L32Z3A69,莊姨小厨(沙湾古镇店),莊姨小厨,traditional,推荐菜,番禺区,沙湾镇西村桃源路5号之101号,050100,餐饮服务;中餐厅;中餐厅,"奶油深海大虾,鲍汁养生黑豆腐,清汤羊,黑芝麻糊,莊姨酿鲮鱼,萝卜牛腩煲,霸皇八宝鸭,炒牛奶,香煎大虾,豉油鸡,奶油",113.325666,22.898294
B0JD5MC5BP,华星农庄,华星农庄,non_chicken,,南沙区,X297新成兴南82米隔水蒸鸡顺德鱼生农家焖鸭无骨鱼生炒水鱼特色蒸无骨鲫鱼,050100,餐饮服务;中餐厅;中餐厅,,113.347153,22.890193
B0FFH6XIU7,全记饭庄,全记饭庄,non_chicken,,番禺区,沙湾镇三善村三益路68号对面,050100,餐饮服务;中餐厅;中餐厅,本地菜,113.303244,22.890245
B0FFH12GB3,生生农庄,生生农庄,non_chicken,,南沙区,船民渔村西南侧,050100,餐饮服务;中餐厅;中餐厅,,113.345606,22.877946
B0FFGWQPGP,第六生产队蒸汽海鲜火锅(桑拿菜),第六生产队蒸汽海鲜火锅,traditional,推荐菜,南沙区,N59乡道,050117,餐饮服务;中餐厅;火锅店,"野生杂鱼,清远走地鸡,圣子,杂菜,生蚝,清蒸海河鲜,生蚝,螃蟹",113.344429,22.876087
B00141RZ1B,威记菜馆,威记菜馆,traditional,推荐菜,番禺区,福北路2号沙湾古镇内(南侧),050100,餐饮服务;中餐厅;中餐厅,"咸薄餐,白灼生肠,豉油鸡,烧骨枸杞叶粥,卤水大肠,五柳松子鱼",113.328294,22.899839
B00141IE7N,金豪酒楼(市良路店),金豪酒楼,traditional,推荐菜,番禺区,市良路1353号,050101,餐饮服务;中餐厅;综合酒楼,"捞面,烧鹅,白切鸡",113.28907,22.891897
B0KR7LN8S1,增沙吊烧鸡,增沙吊烧鸡,other_chicken,招牌,南沙区,中船中路与一号路交叉口东120米,050100,餐饮服务;中餐厅;中餐厅,吊烧鸡,113.388508,22.771097
B0FFF00T9G,仙庙烧鸡,仙庙烧鸡,other_chicken,招牌,南沙区,大岗镇潭州上村仙庙(近十八罗汉南门),050100,餐饮服务;中餐厅;中餐厅,"烧排骨,烧鸡,烧豆角,芥菜鸡杂汤,腊味排骨饭,炒粉,白灼茄子,三丝炒米,鸡脚芥菜汤,鸡杂,猪骨粥,腊味排骨煲仔饭,白灼白蛤,排骨,煲仔饭,清蒸湄公鱼,腊味煲仔饭,清蒸海河鲜",113.39295,22.783162
B0FFFEHN42,潭州尚南新邨吊烧鸡,潭州尚南新邨吊烧鸡,other_chicken,招牌,南沙区,中心街62号,050000,餐饮服务;餐饮相关场所;餐饮相关,"吊烧鸡,大煲仔饭",113.390417,22.780935
B0LB7A6X7D,香园花果山荘烧鸡,香园花果山荘烧鸡,other_chicken,招牌,南沙区,大岗镇村前路2号之-101铺,050000,餐饮服务;餐饮相关场所;餐饮相关,"烧鸡,单人餐,排骨腊味煲仔饭",113.389927,22.782451
B0GKF7O0JZ,永兴饮食烧鸡(大岗店),永兴饮食烧鸡,other_chicken,招牌,南沙区,安祺幼儿园西北门东南80米,050000,餐饮服务;餐饮相关场所;餐饮相关,烧鸡,113.390003,22.781195
B0FFH0WUC1,华莱士·全鸡汉堡(广州潭洲店),华莱士·全鸡汉堡,modern,招牌,南沙区,欣荣路潭洲市场首层3-4号铺,050300,餐饮服务;快餐厅;快餐厅,"炸鸡,双人餐,下午茶,单人餐,宵夜,汉堡,鸡块",113.383205,22.787272
B0L1BBXUBR,塔斯汀中国汉堡(广州市南沙潭州民生路店),塔斯汀中国汉堡,non_chicken,,南沙区,裕荣路与民生路交叉口东北20米,050300,餐饮服务;快餐厅;快餐厅,中国汉堡,113.382331,22.787954
B0H3HZYYE7,放马茶缸烧鸡,放马茶缸烧鸡,other_chicken,招牌,南沙区,大岗镇放马村潭州大桥旁边,050000,餐饮服务;餐饮相关场所;餐饮相关,烧鸡,113.375063,22.779028
B0FFFXQBK4,派德乐炸鸡汉堡(潭州店),派德乐炸鸡汉堡,modern,招牌,南沙区,大岗镇潭洲民生路45号,050300,餐饮服务;快餐厅;快餐厅,"烤翅套餐,无骨鸡柳,好友a套餐,新鸡翅套餐,腿堡套餐,超值全家桶,全鸡套餐,辣翅套餐,川香鸡柳,黄金蟹黄堡,香辣鸡腿堡,至尊七虾堡,老北京鸡肉卷,牛肉堡,深海鳕鱼堡,炸鸡汉堡,薯条",113.382827,22.787006
B0HA47RC2S,汁遇韩式炸鸡(大岗店),汁遇韩式炸鸡,modern,招牌,南沙区,大岗镇兴业路392号,050203,餐饮服务;外国餐厅;韩国料理,"炸鸡,韩式炸鸡",113.38964,22.791629
B0KKNMOJS6,华哥农庄·顺德鱼生·桑拿鸡·老字号(潭灵大道店),华哥农庄·顺德鱼生·桑拿鸡·老字号,traditional,招牌,南沙区,潭灵大道与天元路交叉口北,050000,餐饮服务;餐饮相关场所;餐饮相关,,113.386948,22.800562
B0K3TSUPF2,秋盈手撕鸡(潭州店),秋盈手撕鸡,traditional,招牌,南沙区,民生路65号,050000,餐饮服务;餐饮相关场所;餐饮相关,手撕鸡,113.382135,22.787837
B0HGFA6H4V,粤加大手撕鸡(潭洲店),粤加大手撕鸡,traditional,招牌,南沙区,民生路潭洲中心市场西北侧约180米,050100,餐饮服务;中餐厅;中餐厅,,113.381881,22.788317
B0JG67LLZ8,古奇脆香鸡(民生路店),古奇脆香鸡,other_chicken,招牌,南沙区,民生路与裕荣路交叉口东南40米,050000,餐饮服务;餐饮相关场所;餐饮相关,,113.382591,22.787646
B0M67ZWJT5,绝味炸鸡,绝味炸鸡,modern,招牌,南沙区,欣荣路与锦秀路交叉口东北60米,050300,餐饮服务;快餐厅;快餐厅,,113.38288,22.785667
B0FFKZ3QD5,华莱士·全鸡汉堡(南沙大岗1店),华莱士·全鸡汉堡,modern,招牌,南沙区,大岗镇兴业路29号一层02铺,050300,餐饮服务;快餐厅;快餐厅,"双人餐,下午茶,单人餐,宵夜,汉堡,炸鸡",113.401534,22.805168
B0J6NUMMXR,塔斯汀中国汉堡(广州市大岗豪岗大道店),塔斯汀中国汉堡,non_chicken,,南沙区,大岗镇豪岗大道1号105-106铺,050300,餐饮服务;快餐厅;快餐厅,中国汉堡,113.399534,22.803214
B0I2TSRTAI,华莱士·全鸡汉堡(阳光广场店),华莱士·全鸡汉堡,modern,招牌,南沙区,大岗谭大公路55号,050300,餐饮服务;快餐厅;快餐厅,"双人餐,宵夜,汉堡,下午茶,单人餐,炸鸡",113.39549,22.798675
B0FFGCHFS9,淼福猪肚鸡·椰子鸡(大岗店),淼福猪肚鸡·椰子鸡,traditional,招牌,南沙区,大岗镇潭灵大道东29、30、33、35号,050117,餐饮服务;中餐厅;火锅店,"鹅肠,香芋,金针菇,腐竹,胡椒猪肚鸡,牛肉丸,煲仔饭,小肥羊,椰子鸡",113.391089,22.806112
B0J196VKIH,科科调炸鸡茶饮,科科调炸鸡茶饮,modern,招牌,南沙区,荔岗路4号104,050000,餐饮服务;餐饮相关场所;餐饮相关,,113.392058,22.796492
B0H067HOUZ,卜卜脆炸鸡店(潭洲店),卜卜脆炸鸡店,modern,招牌,南沙区,欣荣路69号,050300,餐饮服务;快餐厅;快餐厅,,113.382905,22.785731
B0H6DA5CUQ,重庆烧鸡公(大岗店),重庆烧鸡公,modern,招牌,南沙区,兴业路118号阳光城市广场F1层,050102,餐饮服务;中餐厅;四川菜(川菜),,113.3945,22.797134
B0JAR5ZS20,一鸣甲鱼鸡煲(大岗店),一鸣甲鱼鸡煲,other_chicken,招牌,南沙区,大岗镇东平路10号(中国电信旁边),050100,餐饮服务;中餐厅;中餐厅,,113.396798,22.806391
B0FFI7UBW4,正新鸡排(大岗镇店),正新鸡排,modern,招牌,南沙区,大岗镇兴业路38号1栋105号,050300,餐饮服务;快餐厅;快餐厅,单人餐,113.402572,22.805802
B0FFFXLU5A,永长猪肚鸡(大岗店),永长猪肚鸡,traditional,招牌,南沙区,大岗镇环镇西路40号永长猪肚,050100,餐饮服务;中餐厅;中餐厅,猪肚鸡,113.39943,22.804609
B0FFLDA5MF,新奥尔良烤鸡(东濠路店),新奥尔良烤鸡,modern,招牌,南沙区,北流路与东濠路交叉口北流村口公交站台,050000,餐饮服务;餐饮相关场所;餐饮相关,烤鸡,113.391603,22.799364
B0FFK658YT,六仔鱼生猪肚煲鸡,六仔鱼生猪肚煲鸡,other_chicken,招牌,南沙区,大岗镇工业路2号,050100,餐饮服务;中餐厅;中餐厅,鱼生,113.39893,22.807473
B0FFF4Z92S,南沙大岗谷城鸡乡,南沙大岗谷城鸡乡,other_chicken,招牌,南沙区,大岗镇新悦路顺番加油站旁(大自然农庄直入200米),050100,餐饮服务;中餐厅;中餐厅,炒饭,113.387183,22.807656
B0L6U6DSMO,宸皓乌鸡羊肉粉,宸皓乌鸡羊肉粉,other_chicken,招牌,南沙区,大岗兴业步行街与工业路交叉口西北20米,050100,餐饮服务;中餐厅;中餐厅,羊肉粉,113.402494,22.806639
B0H2UMPL0W,满格炸鸡炸串茶饮,满格炸鸡炸串茶饮,modern,招牌,南沙区,大岗镇荔枝湾花园荔岗路4号自编003,050000,餐饮服务;餐饮相关场所;餐饮相关,炸串,113.392057,22.796473
B0FFFAHJ3Z,安记猪肚鸡煲,安记猪肚鸡煲,traditional,招牌,南沙区,大岗镇翡翠蓝湾蓝怡街106号,050100,餐饮服务;中餐厅;中餐厅,"三皇鸡,牛百叶,水鱼,凉瓜煎蛋,鲜冬菇,罗非鱼,三丝炒米粉,爽甜鲩鱼生,时菜,鹅肠,公鸡子,芥菜汤,吊烧鸡,冬瓜,牛鞭,乳鸽,烧鸡,肉丸,猪肚鸡",113.419317,22.804816
B0G3RODY6T,西施烧鸡(工业路店),西施烧鸡,other_chicken,招牌,南沙区,大岗镇兴业路23号5栋110号,050000,餐饮服务;餐饮相关场所;餐饮相关,烧鸡,113.401225,22.8068
B0L1H7YC0I,囍乐泰式料理,囍乐泰式料理,non_chicken,,南沙区,大岗镇潭安街42号(北流村公园附近),050200,餐饮服务;外国餐厅;外国餐厅,料理,113.392727,22.801456
B0KKXMGVPO,葵香鸡(大岗店),葵香鸡,other_chicken,招牌,南沙区,南沙区兴业路与北流路交叉口南80米,050000,餐饮服务;餐饮相关场所;餐饮相关,香鸡,113.394253,22.796607
B0I36A8N8A,窑鸡王(大岗店),窑鸡王,traditional,招牌,南沙区,大岗镇豪岗花园丽景大厦102号,050000,餐饮服务;餐饮相关场所;餐饮相关,"招牌窑鸡（整只）,招牌窑鸡,腊味饭,卤香鸭肠,卤香鹌鹑蛋,盐焗鸡心,卤香藕片,卤香三结义,盐焗三宝,盐焗鸡爪,卤香鸭脖,双人餐",113.397823,22.801129
B0H0JDU6BQ,秋盈手撕鸡(大岗普盈店),秋盈手撕鸡,traditional,招牌,南沙区,大岗镇工业路10号(4号楼)101号铺,050000,餐饮服务;餐饮相关场所;餐饮相关,手撕鸡,113.399643,22.807435
B0K1Y660J4,粤加大手撕鸡(东濠路店),粤加大手撕鸡,traditional,招牌,南沙区,东濠路与工业路交叉口南20米,050000,餐饮服务;餐饮相关场所;餐饮相关,,113.398622,22.807452
B0JD1M4LUZ,英子鸡脚(东平雅筑店),英子鸡脚,other_chicken,招牌,南沙区,大岗镇东流村豪福路93号,050000,餐饮服务;餐饮相关场所;餐饮相关,鸡脚,113.397156,22.807257
